City_ID,City,Country,Date,Lat,Lng,Max Temp,Humidity,Cloudiness,Wind Speed
0,Port Alfred,ZA,2022-09-23 19:48:17,-33.5906,26.891,60.19,82,100,3.0
1,Ushuaia,AR,2022-09-23 19:48:18,-54.8,-68.3,53.26,40,40,10.36
2,Hilo,US,2022-09-23 19:48:18,19.7297,-155.09,86.29,74,0,7.0
3,Saurimo,AO,2022-09-23 19:48:19,-9.6608,20.3916,76.17,42,79,1.88
4,Atuona,PF,2022-09-23 19:48:19,-9.8,-139.0333,76.03,81,18,14.34
5,Barrow,US,2022-09-23 19:48:19,71.2906,-156.7887,33.82,86,100,11.5
6,Airai,TL,2022-09-23 19:48:20,-8.9266,125.4092,60.67,52,90,2.84
7,Tezu,IN,2022-09-23 19:48:20,27.9167,96.1667,73.69,95,100,2.62
8,Esperance,AU,2022-09-23 19:45:39,-33.8667,121.9,56.86,75,57,11.41
9,Yellowknife,CA,2022-09-23 19:45:13,62.456,-114.3525,57.72,51,20,11.5
10,Chuy,UY,2022-09-23 19:47:55,-33.6971,-53.4616,57.16,54,2,10.65
11,Ilulissat,GL,2022-09-23 19:48:21,69.2167,-51.1,33.82,100,75,2.3
12,Hobart,AU,2022-09-23 19:46:09,-42.8794,147.3294,49.86,86,100,21.85
13,Busselton,AU,2022-09-23 19:48:22,-33.65,115.3333,51.64,88,100,12.39
14,Den Helder,NL,2022-09-23 19:43:33,52.9599,4.7593,58.98,95,100,6.91
15,Nemuro,JP,2022-09-23 19:48:22,43.3236,145.575,66.69,94,100,24.09
16,Sao Joao Da Barra,BR,2022-09-23 19:48:22,-21.6403,-41.0511,75.29,75,100,22.77
17,Conde,BR,2022-09-23 19:48:23,-7.2597,-34.9075,81.86,74,75,10.36
18,Salalah,OM,2022-09-23 19:48:23,17.0151,54.0924,78.89,89,20,3.44
19,Dikson,RU,2022-09-23 19:48:24,73.5069,80.5464,32.14,78,100,20.71
20,Cabo San Lucas,MX,2022-09-23 19:43:31,22.8909,-109.9124,90.7,71,8,7.67
21,Rocha,UY,2022-09-23 19:48:24,-34.4833,-54.3333,56.68,58,3,9.57
22,Castro,BR,2022-09-23 19:44:53,-24.7911,-50.0119,58.32,61,0,5.1
23,Tiksi,RU,2022-09-23 19:48:25,71.6872,128.8694,24.57,89,98,0.25
24,Kihei,US,2022-09-23 19:48:25,20.785,-156.4656,84.22,66,20,8.05
25,Rovaniemi,FI,2022-09-23 19:48:26,66.5,25.7167,45.81,81,0,8.05
26,Tasiilaq,GL,2022-09-23 19:48:27,65.6145,-37.6368,44.76,70,100,5.3
27,Rikitea,PF,2022-09-23 19:48:28,-23.1203,-134.9692,70.95,74,20,12.93
28,Kodiak,US,2022-09-23 19:48:28,57.79,-152.4072,54.91,50,75,5.75
29,Adana,TR,2022-09-23 19:48:28,36.985,35.2881,69.82,78,0,6.91
30,Carnarvon,AU,2022-09-23 19:48:29,-24.8667,113.6333,64.2,71,0,18.19
31,Ahipara,NZ,2022-09-23 19:48:29,-35.1667,173.1667,57.43,87,74,13.24
32,Cherskiy,RU,2022-09-23 19:48:29,68.75,161.3,32.56,83,19,7.92
33,Mayor Pablo Lagerenza,PY,2022-09-23 19:48:30,-19.9309,-60.7718,74.64,19,97,6.35
34,Saskylakh,RU,2022-09-23 19:48:30,71.9167,114.0833,18.95,92,93,3.71
35,Mataura,NZ,2022-09-23 19:48:30,-46.1927,168.8643,49.48,95,100,0.96
36,Sur,OM,2022-09-23 19:48:31,22.5667,59.5289,84.13,64,100,11.56
37,New Norfolk,AU,2022-09-23 19:48:31,-42.7826,147.0587,49.5,84,100,3.0
38,Hithadhoo,MV,2022-09-23 19:48:31,-0.6,73.0833,81.81,73,100,5.3
39,Balkanabat,TM,2022-09-23 19:48:32,39.5108,54.3671,89.15,11,0,10.11
40,Northam,GB,2022-09-23 19:48:32,51.0333,-4.2167,59.4,77,57,12.53
41,Bengkulu,ID,2022-09-23 19:46:17,-3.8004,102.2655,74.97,91,99,3.76
42,Nanortalik,GL,2022-09-23 19:48:33,60.1432,-45.2371,48.29,97,100,15.1
43,Natitingou,BJ,2022-09-23 19:48:33,10.3042,1.3796,72.28,95,100,3.33
44,Coquimbo,CL,2022-09-23 19:48:34,-29.9533,-71.3436,60.53,72,40,10.36
45,Faya,SA,2022-09-23 19:49:34,18.3851,42.4509,73.51,35,99,7.05
46,Asyut,EG,2022-09-23 19:49:34,27.181,31.1837,89.78,23,0,8.25
47,Teknaf,BD,2022-09-23 19:49:35,20.8624,92.3058,79.16,86,92,1.19
48,Mugur-Aksy,RU,2022-09-23 19:49:35,50.35,90.5,42.78,70,11,5.44
49,Iqaluit,CA,2022-09-23 19:49:35,63.7506,-68.5145,40.73,48,40,11.5
50,Labuhan,ID,2022-09-23 19:49:36,-6.8844,112.2051,77.76,87,69,10.36
51,Pingzhuang,CN,2022-09-23 19:49:36,42.0372,119.2889,47.62,30,0,2.55
52,Aykhal,RU,2022-09-23 19:49:36,66.0,111.5,19.44,95,87,10.85
53,Torbay,CA,2022-09-23 19:49:37,47.6666,-52.7314,64.27,87,100,21.85
54,Punta Arenas,CL,2022-09-23 19:49:37,-53.15,-70.9167,53.71,43,75,23.02
55,Buraydah,SA,2022-09-23 19:46:39,26.326,43.975,88.25,17,0,11.68
56,Manggar,ID,2022-09-23 19:49:38,-2.8833,108.2667,79.3,83,100,6.98
57,Husavik,IS,2022-09-23 19:49:38,66.0449,-17.3389,47.19,69,68,10.04
58,Pathein,MM,2022-09-23 19:49:38,16.7833,94.7333,75.61,94,100,4.92
59,Bredasdorp,ZA,2022-09-23 19:49:39,-34.5322,20.0403,51.64,64,100,4.97
60,Hami,CN,2022-09-23 19:49:39,42.8,93.45,66.34,14,13,1.43
61,Sadska,CZ,2022-09-23 19:49:39,50.136,14.9863,54.54,66,100,4.38
62,Tuktoyaktuk,CA,2022-09-23 19:49:40,69.4541,-133.0374,35.6,87,100,10.36
63,Kahului,US,2022-09-23 19:49:40,20.8947,-156.47,84.22,63,20,8.05
64,Nome,US,2022-09-23 19:49:40,64.5011,-165.4064,45.16,87,20,6.91
65,Mansa,IN,2022-09-23 19:49:41,29.9833,75.3833,74.39,85,98,5.84
66,Qaanaaq,GL,2022-09-23 19:49:41,77.484,-69.3632,18.59,80,33,6.58
67,Sokolo,ML,2022-09-23 19:49:42,14.7328,-6.1219,86.76,50,34,2.84
68,Sabha,LY,2022-09-23 19:49:42,27.0377,14.4283,88.2,30,10,11.72
69,Butaritari,KI,2022-09-23 19:49:42,3.0707,172.7902,81.37,69,100,14.16
70,Hamilton,US,2022-09-23 19:49:07,39.1834,-84.5333,70.0,43,0,5.75
71,Sitka,US,2022-09-23 19:49:43,57.0531,-135.33,55.29,88,100,10.36
72,Cape Town,ZA,2022-09-23 19:49:02,-33.9258,18.4232,57.09,60,0,10.36
73,Namibe,AO,2022-09-23 19:49:43,-15.1961,12.1522,63.75,79,5,6.82
74,Ugoofaaru,MV,2022-09-23 19:49:44,5.6667,73.0,82.35,71,12,8.57
75,Bluff,NZ,2022-09-23 19:49:44,-46.6,168.3333,49.8,85,90,8.14
76,Lagoa,PT,2022-09-23 19:49:44,39.05,-27.9833,72.1,86,100,23.98
77,El Alto,PE,2022-09-23 19:49:45,-4.2714,-81.2147,69.46,71,100,17.76
78,Vaini,TO,2022-09-23 19:49:45,-21.2,-175.2,77.16,83,75,9.22
79,Borogontsy,RU,2022-09-23 19:49:45,62.6683,131.1683,28.69,82,96,10.83
80,Palaia Fokaia,GR,2022-09-23 19:49:46,37.72,23.9463,65.75,52,0,11.74
81,Prince George,CA,2022-09-23 19:49:46,53.9166,-122.753,53.04,62,40,4.61
82,Kapaa,US,2022-09-23 19:49:46,22.0752,-159.319,82.38,76,0,4.61
83,Bouloupari,NC,2022-09-23 19:49:47,-21.8667,166.05,64.31,78,4,3.85
84,Albany,US,2022-09-23 19:47:48,42.6001,-73.9662,57.88,51,0,3.0
85,Narsaq,GL,2022-09-23 19:49:47,60.9167,-46.05,46.62,98,100,5.82
86,Yuyao,CN,2022-09-23 19:49:47,30.05,121.1494,65.97,84,66,3.02
87,Fortuna,US,2022-09-23 19:49:48,40.5982,-124.1573,69.93,75,1,1.01
88,Silvan,TR,2022-09-23 19:49:48,38.1419,41.0081,66.49,43,0,2.33
89,Dubbo,AU,2022-09-23 19:49:48,-32.25,148.6167,53.73,94,40,6.91
90,San Ignacio,BZ,2022-09-23 19:49:49,17.1561,-89.0714,86.14,74,75,0.0
91,El Guamo,CO,2022-09-23 19:50:49,10.0316,-74.9761,86.56,63,100,5.99
92,Saint-Philippe,RE,2022-09-23 19:50:50,-21.3585,55.7679,69.39,80,40,14.63
93,Bambous Virieux,MU,2022-09-23 19:50:50,-20.3428,57.7575,71.22,83,75,16.11
94,Thompson,CA,2022-09-23 19:50:51,55.7435,-97.8558,66.36,42,20,11.5
95,Veraval,IN,2022-09-23 19:50:52,20.9,70.3667,78.48,82,89,6.6
96,Pauini,BR,2022-09-23 19:50:52,-7.7136,-66.9764,94.37,41,18,1.99
97,Vardo,NO,2022-09-23 19:50:52,70.3705,31.1107,49.98,87,75,17.27
98,Port Blair,IN,2022-09-23 19:50:53,11.6667,92.75,77.04,94,75,0.0
99,Tabou,CI,2022-09-23 19:50:53,4.423,-7.3528,76.32,89,98,7.11
100,Okhotsk,RU,2022-09-23 19:50:54,59.3833,143.3,35.82,58,68,7.18
101,Buin,CL,2022-09-23 19:50:54,-33.7333,-70.75,70.43,46,100,3.42
102,Hermanus,ZA,2022-09-23 19:50:54,-34.4187,19.2345,54.81,61,100,9.6
103,Saint-Pierre,RE,2022-09-23 19:50:55,-21.3393,55.4781,69.48,78,0,2.3
104,Yumen,CN,2022-09-23 19:50:55,40.2833,97.2,55.63,26,99,3.42
105,Tautira,PF,2022-09-23 19:50:55,-17.7333,-149.15,76.93,75,46,19.55
106,Launceston,AU,2022-09-23 19:50:56,-41.45,147.1667,46.04,88,100,16.11
107,Laguna,US,2022-09-23 19:50:56,38.421,-121.4238,88.32,40,0,5.75
108,Digras,IN,2022-09-23 19:50:56,20.1167,77.7167,70.92,89,48,5.91
109,Homer,US,2022-09-23 19:50:57,59.6425,-151.5483,49.87,92,100,3.44
110,Arraial Do Cabo,BR,2022-09-23 19:50:57,-22.9661,-42.0278,69.76,64,100,23.02
111,Itoman,JP,2022-09-23 19:50:58,26.1247,127.6694,80.62,94,75,6.91
112,Mount Isa,AU,2022-09-23 19:50:58,-20.7333,139.5,65.97,39,0,10.36
113,Ancud,CL,2022-09-23 19:49:18,-41.8697,-73.8203,51.22,64,12,7.45
114,Boa Vista,BR,2022-09-23 19:50:59,2.8197,-60.6733,93.18,40,75,9.22
115,Athabasca,CA,2022-09-23 19:50:59,54.7169,-113.2854,64.81,29,100,16.87
116,Oppdal,NO,2022-09-23 19:50:59,62.5943,9.6912,44.46,96,100,1.83
117,Mar Del Plata,AR,2022-09-23 19:48:46,-38.0023,-57.5575,57.22,76,0,12.66
118,Solnechnyy,RU,2022-09-23 19:51:00,50.7214,136.6319,48.67,92,100,5.01
119,Pevek,RU,2022-09-23 19:51:00,69.7008,170.3133,32.97,87,45,15.46
120,Alekseyevsk,RU,2022-09-23 19:51:00,57.8406,108.3492,37.53,76,93,11.77
121,Aklavik,CA,2022-09-23 19:51:01,68.2191,-135.0107,37.4,87,100,8.05
122,Avarua,CK,2022-09-23 19:50:21,-21.2078,-159.775,77.05,53,2,10.36
123,Khatanga,RU,2022-09-23 19:51:02,71.9667,102.5,21.42,90,84,8.46
124,Karratha,AU,2022-09-23 19:51:02,-20.7377,116.8463,75.65,43,0,12.06
125,Fort William,GB,2022-09-23 19:51:02,56.8165,-5.1121,49.3,88,19,2.42
126,Saint George,US,2022-09-23 19:47:24,37.1041,-113.5841,88.43,25,0,3.44
127,Vanavara,RU,2022-09-23 19:51:03,60.34,102.2797,34.07,80,100,8.37
128,Upernavik,GL,2022-09-23 19:51:03,72.7868,-56.1549,29.48,65,58,16.96
129,Mahebourg,MU,2022-09-23 19:51:04,-20.4081,57.7,71.26,83,75,16.11
130,Dublin,US,2022-09-23 19:51:04,37.7021,-121.9358,87.46,40,0,5.75
131,Roanne,FR,2022-09-23 19:51:04,46.0,4.0,59.54,73,100,3.85
132,Dauphin,CA,2022-09-23 19:51:05,51.1494,-100.0502,53.74,82,100,4.61
133,Grindavik,IS,2022-09-23 19:51:05,63.8424,-22.4338,49.95,87,75,11.5
134,Jamestown,US,2022-09-23 19:51:06,42.097,-79.2353,56.01,47,20,13.8
135,Pacific Grove,US,2022-09-23 19:46:12,36.6177,-121.9166,86.38,67,0,8.99
136,East London,ZA,2022-09-23 19:52:06,-33.0153,27.9116,63.18,78,100,9.84
137,Sai Buri,TH,2022-09-23 19:52:06,6.7013,101.6168,76.26,84,99,3.65
138,Geraldton,AU,2022-09-23 19:52:07,-28.7667,114.6,48.61,93,75,5.75
139,Roald,NO,2022-09-23 19:52:07,62.5833,6.1333,54.75,87,75,5.75
140,Kita,ML,2022-09-23 19:52:07,13.0349,-9.4895,74.86,93,100,3.31
141,Georgetown,MY,2022-09-23 19:47:37,5.4112,100.3354,78.73,93,20,2.3
142,Faanui,PF,2022-09-23 19:52:08,-16.4833,-151.75,77.72,75,27,19.86
143,Comodoro Rivadavia,AR,2022-09-23 19:52:08,-45.8667,-67.5,58.86,29,0,13.8
144,Nantucket,US,2022-09-23 19:52:09,41.2835,-70.0995,60.94,59,100,19.57
145,Baghdad,IQ,2022-09-23 19:49:56,33.3406,44.4009,84.11,28,0,11.5
146,Tungor,RU,2022-09-23 19:52:09,53.3808,142.9564,47.26,93,71,4.36
147,Anadyr,RU,2022-09-23 19:52:10,64.75,177.4833,37.9,86,40,8.95
148,Kavaratti,IN,2022-09-23 19:52:10,10.5669,72.642,81.1,76,32,11.86
149,Sao Filipe,CV,2022-09-23 19:52:10,14.8961,-24.4956,78.87,83,42,8.19
150,Alta Floresta,BR,2022-09-23 19:52:11,-9.8756,-56.0861,80.42,83,40,4.61
151,Ponta Do Sol,PT,2022-09-23 19:52:11,32.6667,-17.1,74.03,82,22,3.8
152,Karla,EE,2022-09-23 19:52:11,59.3723,24.9275,48.16,81,0,4.61
153,Hede,CN,2022-09-23 19:52:12,33.7681,120.2517,58.26,59,100,5.21
154,Iquitos,PE,2022-09-23 19:52:13,-3.7481,-73.2472,93.24,59,75,13.8
155,Kyra,RU,2022-09-23 19:52:14,49.5776,111.9753,44.06,84,100,4.12
156,Los Llanos De Aridane,ES,2022-09-23 19:52:14,28.6585,-17.9182,71.35,78,20,11.5
157,Cidreira,BR,2022-09-23 19:52:15,-30.1811,-50.2056,58.93,61,6,17.52
158,Praia Da Vitoria,PT,2022-09-23 19:52:15,38.7333,-27.0667,75.45,83,75,20.38
159,Vestmanna,FO,2022-09-23 19:52:15,62.1564,-7.1664,47.32,81,75,6.91
160,Amahai,ID,2022-09-23 19:52:16,-3.3333,128.9167,76.37,86,55,3.47
161,Codrington,AU,2022-09-23 19:52:16,-38.2667,141.9667,50.18,53,97,14.43
162,Griffith,US,2022-09-23 19:52:17,41.5284,-87.4237,63.09,46,0,6.91
163,Mattru,SL,2022-09-23 19:52:17,7.6244,-11.8332,73.8,97,100,3.78
164,Hanzhong,CN,2022-09-23 19:52:17,33.0728,107.0303,59.86,93,100,2.84
165,Souillac,MU,2022-09-23 19:52:18,-20.5167,57.5167,70.18,83,75,16.11
166,Sistranda,NO,2022-09-23 19:52:18,63.7256,8.834,49.96,82,21,13.13
167,Coihaique,CL,2022-09-23 19:52:19,-45.5752,-72.0662,53.55,43,40,6.91
168,Kota Tinggi,MY,2022-09-23 19:52:19,1.7381,103.8999,80.64,93,76,2.46
169,Vila Velha,BR,2022-09-23 19:52:18,-20.3297,-40.2925,76.95,84,75,16.11
170,Severo-Kurilsk,RU,2022-09-23 19:52:19,50.6789,156.125,49.57,73,100,3.11
171,Bud,US,2022-09-23 19:52:20,39.447,-86.1758,66.74,49,100,3.49
172,Santa Cruz,BO,2022-09-23 19:51:52,-17.8,-63.1667,78.85,29,75,9.22
173,Lorengau,PG,2022-09-23 19:52:20,-2.0226,147.2712,80.67,78,89,5.46
174,Shenzhen,CN,2022-09-23 19:50:48,22.5455,114.0683,82.35,91,27,6.62
175,Wagar,SD,2022-09-23 19:52:21,16.1525,36.2032,90.55,42,14,10.6
176,Kaeo,NZ,2022-09-23 19:52:21,-35.1,173.7833,58.32,92,63,8.59
177,Copiapo,CL,2022-09-23 19:49:28,-27.3667,-70.3333,58.69,29,0,7.09
178,Mogadishu,SO,2022-09-23 19:52:22,2.0371,45.3438,77.18,73,24,15.05
179,Gamba,GA,2022-09-23 19:52:22,-2.65,10.0,75.87,86,100,8.63
180,Saldanha,ZA,2022-09-23 19:52:22,-33.0117,17.9442,53.65,68,100,16.11
181,Bethel,US,2022-09-23 19:48:29,41.3712,-73.414,63.9,45,0,14.97
182,Dong Hoi,VN,2022-09-23 19:47:23,17.4833,106.6,76.05,92,100,7.56
183,Celestun,MX,2022-09-23 19:53:23,20.8667,-90.4,81.64,77,58,10.87
184,Hun,LY,2022-09-23 19:53:23,29.1268,15.9477,80.29,55,98,19.19
185,Chlorakas,CY,2022-09-23 19:53:24,34.8042,32.4083,68.88,52,0,5.75
186,Outlook,CA,2022-09-23 19:53:24,51.5001,-107.0513,65.23,44,50,11.41
187,Leningradskiy,RU,2022-09-23 19:53:24,69.3833,178.4167,33.85,99,100,8.75
188,Grao Mogol,BR,2022-09-23 19:53:25,-16.5594,-42.8897,77.31,61,98,0.07
189,Jalingo,NG,2022-09-23 19:53:25,8.8833,11.3667,74.01,93,73,0.87
190,Port Lincoln,AU,2022-09-23 19:53:26,-34.7333,135.8667,49.87,71,3,10.76
191,Lebu,CL,2022-09-23 19:53:26,-37.6167,-73.65,51.69,76,16,16.2
192,Portland,US,2022-09-23 19:52:14,45.5234,-122.6762,74.57,54,20,5.01
193,Kizukuri,JP,2022-09-23 19:53:26,40.8061,140.3861,72.52,93,100,5.95
194,Anastacio,BR,2022-09-23 19:53:27,-20.4836,-55.8069,78.69,20,17,7.11
195,Provideniya,RU,2022-09-23 19:53:27,64.3833,-173.3,40.39,94,100,14.34
196,Lavrentiya,RU,2022-09-23 19:53:27,65.5833,-171.0,42.28,76,91,15.64
197,Shingu,JP,2022-09-23 19:53:28,33.7333,135.9833,73.53,92,11,5.21
198,Jardim,BR,2022-09-23 19:53:28,-21.4803,-56.1381,74.52,25,51,5.73
199,Ravar,IR,2022-09-23 19:53:28,31.2656,56.8055,79.12,14,0,4.97
200,Stokmarknes,NO,2022-09-23 19:53:29,68.5646,14.9108,51.76,93,75,2.3
201,Mount Gambier,AU,2022-09-23 19:53:29,-37.8333,140.7667,47.19,63,70,6.89
202,Muli,MV,2022-09-23 19:53:29,2.9167,73.5667,82.6,72,59,8.55
203,Lasa,IT,2022-09-23 19:53:30,46.6166,10.7002,50.36,89,96,2.66
204,Talnakh,RU,2022-09-23 19:53:30,69.4865,88.3972,29.21,86,52,5.28
205,Toribio,CO,2022-09-23 19:53:30,2.9548,-76.2684,71.02,68,97,0.76
206,Parsabad,IR,2022-09-23 19:53:31,39.6482,47.9174,75.09,42,0,6.89
207,Ternate,ID,2022-09-23 19:53:31,0.8,127.4,80.76,78,59,4.03
208,Pleshanovo,RU,2022-09-23 19:53:31,52.8333,53.4833,69.58,22,100,6.2
209,Manakara,MG,2022-09-23 19:53:32,-22.1333,48.0167,64.26,92,1,4.92
210,Hobyo,SO,2022-09-23 19:53:32,5.3505,48.5268,76.03,86,0,18.28
211,Chokurdakh,RU,2022-09-23 19:53:33,70.6333,147.9167,31.19,89,95,5.08
212,Yei,SS,2022-09-23 19:53:33,4.095,30.6779,66.74,93,77,2.91
213,Sao Miguel Do Araguaia,BR,2022-09-23 19:53:33,-13.275,-50.1628,89.02,43,100,3.85
214,Nikolskoye,RU,2022-09-23 19:53:34,59.7035,30.7861,44.78,95,17,3.78
215,Deputatskiy,RU,2022-09-23 19:53:34,69.3,139.9,15.37,98,93,1.52
216,Korla,CN,2022-09-23 19:53:34,41.7597,86.1469,71.4,15,12,7.09
217,Margate,GB,2022-09-23 19:53:35,51.3813,1.3862,60.69,80,100,8.01
218,Hasaki,JP,2022-09-23 19:53:35,35.7333,140.8333,79.21,87,98,16.33
219,Atikokan,CA,2022-09-23 19:53:35,48.7555,-91.6216,57.34,54,100,7.83
220,Ko Samui,TH,2022-09-23 19:53:36,9.5357,99.9357,81.46,77,100,10.65
221,Kemi,FI,2022-09-23 19:53:36,65.8596,24.8228,44.37,87,0,6.91
222,Kaitangata,NZ,2022-09-23 19:53:36,-46.2817,169.8464,45.99,90,100,4.16
223,Ribeira Grande,PT,2022-09-23 19:53:37,38.5167,-28.7,73.8,83,40,26.46
224,Te Anau,NZ,2022-09-23 19:53:37,-45.4167,167.7167,45.3,91,57,0.72
225,Oktyabrskiy,RU,2022-09-23 19:53:38,54.4815,53.471,66.0,24,94,4.12
226,Temirgoyevskaya,RU,2022-09-23 19:53:38,45.1141,40.2803,54.43,77,65,2.77
227,San Andres,CO,2022-09-23 19:53:38,12.5847,-81.7006,87.82,70,20,6.91
228,Miraflores,MX,2022-09-23 19:53:39,19.2167,-98.8083,71.02,59,79,1.95
229,Constitucion,CL,2022-09-23 19:53:39,-35.3333,-72.4167,58.89,72,92,13.58
230,General Roca,AR,2022-09-23 19:53:39,-39.0333,-67.5833,72.63,29,91,12.53
231,Longyearbyen,SJ,2022-09-23 19:54:40,78.2186,15.6401,46.24,76,75,9.22
232,Pontarlier,FR,2022-09-23 19:54:40,46.8333,6.25,56.95,88,100,3.6
233,Monywa,MM,2022-09-23 19:54:40,22.1167,95.1333,81.19,81,100,6.31
234,Umm Kaddadah,SD,2022-09-23 19:54:41,13.6017,26.6876,89.35,34,100,8.57
235,Eureka,US,2022-09-23 19:54:41,40.8021,-124.1637,83.68,77,1,4.0
236,Kusa,RU,2022-09-23 19:54:41,55.3383,59.4406,59.43,52,100,2.89
237,Boueni,YT,2022-09-23 19:54:42,-12.9025,45.0761,75.18,73,3,4.14
238,Chifeng,CN,2022-09-23 19:54:42,42.2683,118.9636,47.01,29,0,6.4
239,Lokosovo,RU,2022-09-23 19:54:43,61.1333,74.8167,38.3,62,100,4.03
240,Dunmore Town,BS,2022-09-23 19:54:43,25.5,-76.65,83.61,72,0,7.99
241,Magistralnyy,RU,2022-09-23 19:54:43,56.1725,107.4458,32.22,92,44,4.92
242,Szydlowiec,PL,2022-09-23 19:54:44,51.2282,20.8611,49.32,61,87,3.89
243,Bubaque,GW,2022-09-23 19:54:44,11.2833,-15.8333,81.5,78,55,16.64
244,Watsa,CD,2022-09-23 19:54:44,3.0372,29.5355,63.77,97,99,1.83
245,Havoysund,NO,2022-09-23 19:54:45,70.9963,24.6622,50.23,81,100,17.4
246,Del City,US,2022-09-23 19:54:45,35.442,-97.4409,92.79,43,1,5.01
247,Qandala,SO,2022-09-23 19:54:45,11.472,49.8728,86.86,62,88,3.18
248,Orchard Homes,US,2022-09-23 19:54:46,46.8633,-114.0484,66.6,52,45,1.99
249,Yarada,IN,2022-09-23 19:54:46,17.65,83.2667,79.12,94,75,2.3
250,Tuatapere,NZ,2022-09-23 19:54:46,-46.1333,167.6833,46.58,90,95,2.57
251,Elko,US,2022-09-23 19:54:47,41.0002,-115.5012,66.74,27,0,1.99
252,Camabatela,AO,2022-09-23 19:54:47,-8.1881,15.375,69.04,74,39,3.74
253,Dabola,GN,2022-09-23 19:54:48,10.75,-11.1167,73.35,92,100,2.51
254,Vostok,RU,2022-09-23 19:54:48,46.4856,135.8833,52.68,99,86,5.23
255,Bila Tserkva,UA,2022-09-23 19:54:48,49.8094,30.1121,46.47,94,100,7.43
256,Rayong,TH,2022-09-23 19:54:49,12.8333,101.4333,80.83,99,100,2.28
257,Linxia,CN,2022-09-23 19:54:49,35.6003,103.2064,48.52,75,35,2.28
258,Skibbereen,IE,2022-09-23 19:54:49,51.55,-9.2667,55.11,70,0,13.67
259,Purranque,CL,2022-09-23 19:54:50,-40.9167,-73.1667,52.93,59,84,3.47
260,Palu,ID,2022-09-23 19:54:50,-0.8917,119.8707,74.55,96,96,2.84
261,Inhambane,MZ,2022-09-23 19:54:50,-23.865,35.3833,75.18,94,20,7.0
262,Coahuayana,MX,2022-09-23 19:54:51,18.7333,-103.6833,87.71,65,44,5.7
263,Taoudenni,ML,2022-09-23 19:54:51,22.6783,-3.9836,103.84,15,95,4.92
264,Khani,GE,2022-09-23 19:54:51,41.9563,42.9566,47.77,90,15,3.6
265,Ostrovnoy,RU,2022-09-23 19:54:52,68.0531,39.5131,44.08,77,100,10.63
266,Myitkyina,MM,2022-09-23 19:54:52,25.3833,97.4,72.72,100,100,1.16
267,Salamiyah,SY,2022-09-23 19:54:52,35.0113,37.0532,68.49,70,0,6.73
268,Cap Malheureux,MU,2022-09-23 19:54:53,-19.9842,57.6142,72.46,69,17,7.0
269,Udimskiy,RU,2022-09-23 19:54:53,61.1417,45.9144,42.28,86,100,8.43
270,Ballina,AU,2022-09-23 19:54:54,-28.8667,153.5667,62.78,99,23,6.78
271,Eyl,SO,2022-09-23 19:54:54,7.9803,49.8164,77.31,83,65,18.34
272,Katangli,RU,2022-09-23 19:54:54,51.7102,143.2326,47.91,89,100,4.99
273,Puerto Ayora,EC,2022-09-23 19:54:55,-0.7393,-90.3518,75.16,89,99,7.0
274,Clyde River,CA,2022-09-23 19:54:55,70.4692,-68.5914,30.43,74,100,12.66
275,Burnie,AU,2022-09-23 19:54:56,-41.0667,145.9167,46.94,82,100,14.23
276,Klaksvik,FO,2022-09-23 19:55:56,62.2266,-6.589,49.12,85,3,13.87
277,Beringovskiy,RU,2022-09-23 19:55:56,63.05,179.3167,42.53,90,100,20.96
278,Port Hardy,CA,2022-09-23 19:55:57,50.6996,-127.4199,55.58,94,100,4.61
279,San Quintin,MX,2022-09-23 19:55:57,30.4833,-115.95,77.61,59,89,10.94
280,Half Moon Bay,US,2022-09-23 19:55:58,37.4636,-122.4286,88.92,64,0,4.61
281,Manavalakurichi,IN,2022-09-23 19:55:58,8.1333,77.3,77.38,85,23,13.76
282,Clarence Town,AU,2022-09-23 19:55:58,-32.5833,151.7833,61.95,98,24,2.91
283,Puerto Cabezas,NI,2022-09-23 19:55:59,14.0351,-83.3888,87.76,70,40,4.61
284,Norman Wells,CA,2022-09-23 19:55:59,65.282,-126.8329,41.04,70,100,20.71
285,Nyurba,RU,2022-09-23 19:55:59,63.2842,118.3319,30.54,95,100,11.61
286,Eregli,TR,2022-09-23 19:56:00,37.5133,34.0467,60.21,57,7,2.17
287,Tura,IN,2022-09-23 19:56:00,25.5198,90.2201,72.84,96,100,4.38
288,Zaykovo,RU,2022-09-23 19:56:00,57.5613,62.7568,56.3,46,100,2.33
289,Lucea,JM,2022-09-23 19:56:01,18.451,-78.1736,87.85,71,14,8.66
290,Kenai,US,2022-09-23 19:52:30,60.5544,-151.2583,52.14,81,40,6.91
291,Gat,IL,2022-09-23 19:56:01,31.61,34.7642,78.4,100,0,6.69
292,Doha,QA,2022-09-23 19:55:58,25.2867,51.5333,89.58,66,0,2.3
293,Poum,NC,2022-09-23 19:56:02,-20.2333,164.0167,74.3,78,12,7.92
294,Burhaniye,TR,2022-09-23 19:56:02,39.5004,26.9727,58.14,58,0,8.03
295,Harbin,CN,2022-09-23 19:52:04,45.75,126.65,51.75,91,100,11.61
296,Ambilobe,MG,2022-09-23 19:56:03,-13.2,49.05,76.24,66,32,6.33
297,Dunedin,NZ,2022-09-23 19:53:40,-45.8742,170.5036,46.8,88,93,4.0
298,La Macarena,CO,2022-09-23 19:56:03,2.1837,-73.7849,88.95,54,76,3.22
299,Conceicao Do Araguaia,BR,2022-09-23 19:56:04,-8.2578,-49.2647,100.31,20,84,4.5
300,College,US,2022-09-23 19:53:42,64.8569,-147.8028,42.8,87,20,0.0
301,Touros,BR,2022-09-23 19:56:04,-5.1989,-35.4608,79.03,75,14,13.15
302,Narasannapeta,IN,2022-09-23 19:56:05,18.4167,84.05,78.39,84,18,4.05
303,Serafimovich,RU,2022-09-23 19:56:05,49.5786,42.736,56.62,79,90,18.61
304,Zhangye,CN,2022-09-23 19:56:05,38.9342,100.4517,56.57,34,48,1.43
305,Sorland,NO,2022-09-23 19:56:06,67.667,12.6934,51.66,88,100,7.85
306,Kruisfontein,ZA,2022-09-23 19:56:06,-34.0033,24.7314,55.89,61,100,5.23
307,Zeya,RU,2022-09-23 19:56:07,53.75,127.2667,39.65,94,21,2.8
308,Henties Bay,NA,2022-09-23 19:56:07,-22.116,14.2845,54.37,93,2,8.16
309,Marsh Harbour,BS,2022-09-23 19:56:08,26.5412,-77.0636,84.33,65,0,9.33
310,Nema,RU,2022-09-23 19:56:08,57.5067,50.5011,58.71,55,100,6.29
311,Kigoma,TZ,2022-09-23 19:56:08,-4.8769,29.6267,77.61,64,54,4.7
312,Saint-Francois,FR,2022-09-23 19:56:09,46.4154,3.9054,60.24,77,0,4.61
313,Van Buren,US,2022-09-23 19:56:09,35.4368,-94.3483,91.36,27,0,5.64
314,Katsuura,JP,2022-09-23 19:56:10,35.1333,140.3,78.82,89,100,17.4
315,Isangel,VU,2022-09-23 19:56:11,-19.55,169.2667,76.46,84,23,6.71
316,Russkaya Polyana,UA,2022-09-23 19:56:11,49.417,31.9201,47.73,90,89,7.16
317,Otuzco,PE,2022-09-23 19:56:12,-7.9,-78.5833,58.08,56,66,9.06
318,Alexandria,EG,2022-09-23 19:56:12,31.2156,29.9553,75.74,61,0,11.88
319,Warri,NG,2022-09-23 19:56:12,5.5167,5.75,76.59,92,100,2.86
320,Mackenzie,CA,2022-09-23 19:57:13,55.2999,-123.1698,53.82,43,75,8.05
321,Sept-Iles,CA,2022-09-23 19:57:03,50.2001,-66.3821,57.72,57,75,11.5
322,North Bend,US,2022-09-23 19:57:13,43.4065,-124.2243,73.92,89,0,1.99
323,San Cristobal,VE,2022-09-23 19:57:14,7.7669,-72.225,78.98,77,82,4.38
324,Udachnyy,RU,2022-09-23 19:57:14,66.4167,112.4,18.73,93,50,9.84
325,Vaasa,FI,2022-09-23 19:57:14,63.096,21.6158,51.94,87,20,6.91
326,Samarai,PG,2022-09-23 19:57:15,-10.6167,150.6667,79.59,80,50,5.35
327,Prince Rupert,CA,2022-09-23 19:56:13,54.3161,-130.3201,53.29,87,100,32.21
328,Sabang,ID,2022-09-23 19:57:15,5.8933,95.3214,79.81,78,100,6.98
329,Matay,EG,2022-09-23 19:57:15,28.419,30.7792,87.3,34,0,8.79
330,Bandarbeyla,SO,2022-09-23 19:57:16,9.4942,50.8122,77.99,83,73,22.55
331,Fort Nelson,CA,2022-09-23 19:57:16,58.8053,-122.7002,58.59,33,40,6.91
332,Adrar,MR,2022-09-23 19:57:17,20.5022,-10.0711,95.85,30,27,11.3
333,Luderitz,NA,2022-09-23 19:57:17,-26.6481,15.1594,56.64,78,99,12.33
334,Fare,PF,2022-09-23 19:57:17,-16.7,-151.0167,77.5,75,13,20.36
335,Victoria,HK,2022-09-23 19:54:48,22.2855,114.1577,82.45,83,38,11.99
336,Luganville,VU,2022-09-23 19:57:18,-15.5333,167.1667,79.36,84,11,7.0
337,Arman,RU,2022-09-23 19:57:19,59.7,150.1667,36.55,71,6,5.64
338,Khuzdar,PK,2022-09-23 19:57:19,27.7384,66.6434,78.37,44,7,3.29
339,Gaoua,BF,2022-09-23 19:57:19,10.2992,-3.2508,78.08,79,100,3.6
340,Imeni Babushkina,RU,2022-09-23 19:57:20,59.7573,43.1285,45.52,91,100,8.32
341,Irbeyskoye,RU,2022-09-23 19:57:20,55.6428,95.4522,41.34,70,60,8.99
342,Fochville,ZA,2022-09-23 19:57:20,-26.4886,27.4939,62.33,20,0,3.51
343,Lakselv,NO,2022-09-23 19:57:21,70.0513,24.9718,49.82,71,40,19.57
344,Port Elizabeth,ZA,2022-09-23 19:57:21,-33.918,25.5701,60.31,79,75,2.3
345,Sakata,JP,2022-09-23 19:57:22,38.9167,139.855,71.92,98,100,9.46
346,Boffa,GN,2022-09-23 19:57:22,10.1667,-14.0333,78.51,88,100,4.97
347,Jiujiang,CN,2022-09-23 19:57:22,29.7333,115.9833,70.63,47,100,13.38
348,Odienne,CI,2022-09-23 19:57:23,9.51,-7.5692,73.63,90,79,2.19
349,San Carlos De Bariloche,AR,2022-09-23 19:57:23,-41.1456,-71.3082,53.35,43,20,25.32
350,Crotone,IT,2022-09-23 19:57:24,39.0851,17.1178,66.54,46,0,8.01
351,Beloha,MG,2022-09-23 19:57:24,-25.1667,45.05,66.92,84,0,5.77
352,Jizan,SA,2022-09-23 19:57:25,17.3333,42.6667,86.94,66,89,3.91
353,Riachao Das Neves,BR,2022-09-23 19:57:25,-11.7461,-44.91,89.64,32,84,5.77
354,Kondinskoye,RU,2022-09-23 19:57:26,59.6481,67.41,46.6,76,100,6.53
355,Harper,LR,2022-09-23 19:57:26,4.375,-7.7169,76.69,88,99,7.85
356,Ambatondrazaka,MG,2022-09-23 19:57:26,-17.8333,48.4167,58.32,92,20,4.68
357,Pangnirtung,CA,2022-09-23 19:57:27,66.1451,-65.7125,35.28,49,0,4.5
358,Meulaboh,ID,2022-09-23 19:57:27,4.1363,96.1285,76.12,86,100,3.51
359,Shreveport,US,2022-09-23 19:57:27,32.5251,-93.7502,92.71,50,8,1.01
360,Alofi,NU,2022-09-23 19:57:28,-19.0595,-169.9187,76.89,78,91,11.5
361,Lompoc,US,2022-09-23 19:57:28,34.6391,-120.4579,92.79,41,4,5.01
362,Neryungri,RU,2022-09-23 19:57:29,56.6709,124.6491,39.97,89,100,7.09
363,Turayf,SA,2022-09-23 19:57:29,31.6725,38.6637,77.25,41,0,0.0
364,Parana,AR,2022-09-23 19:52:49,-31.732,-60.5238,76.55,26,5,4.43
365,Merauke,ID,2022-09-23 19:57:29,-8.4667,140.3333,75.24,87,11,8.23
366,Tekeli,KZ,2022-09-23 19:57:30,44.83,78.8239,58.96,46,0,8.95
367,Westport,US,2022-09-23 19:54:49,41.1415,-73.3579,65.95,41,1,10.0
368,Ventspils,LV,2022-09-23 19:57:30,57.3894,21.5606,44.53,100,0,0.0
369,Dreux,FR,2022-09-23 19:58:31,48.6667,1.25,59.99,78,100,6.67
370,Junin,AR,2022-09-23 19:57:55,-34.5838,-60.9433,71.89,25,45,3.15
371,Gornorechenskiy,RU,2022-09-23 19:58:32,44.2624,135.1133,53.46,98,62,2.8
372,Seara,PT,2022-09-23 19:58:32,41.1818,-7.8003,66.16,62,100,4.21
373,Ouadda,CF,2022-09-23 19:58:32,8.0777,22.4007,69.46,94,99,1.25
374,Odweyne,SO,2022-09-23 19:58:33,9.4092,45.064,79.56,46,95,11.12
375,Vila,PT,2022-09-23 19:58:33,42.0304,-8.1588,58.08,86,48,3.89
376,Atherton,GB,2022-09-23 19:54:40,53.5237,-2.4935,56.7,85,31,1.01
377,Quatre Cocos,MU,2022-09-23 19:58:33,-20.2078,57.7625,72.09,79,54,18.92
378,Teya,RU,2022-09-23 19:58:34,60.3778,92.6267,34.97,98,100,7.27
379,Katherine,AU,2022-09-23 19:56:26,-14.4667,132.2667,79.12,69,38,4.61
380,Viedma,AR,2022-09-23 19:58:34,-40.8135,-62.9967,62.29,47,88,8.32
381,Muborak,UZ,2022-09-23 19:58:35,39.2553,65.1528,74.12,17,0,8.95
382,Vigrestad,NO,2022-09-23 19:58:35,58.5667,5.7,53.58,84,12,13.33
383,Rosarito,MX,2022-09-23 19:54:39,32.3333,-117.0333,92.41,56,6,9.8
384,Channel-Port Aux Basques,CA,2022-09-23 19:58:35,47.5702,-59.1367,59.43,97,100,9.57
385,Kamenka,RU,2022-09-23 19:58:36,51.3223,42.7678,56.93,93,100,10.85
386,Tynda,RU,2022-09-23 19:58:36,55.1667,124.7167,38.17,93,98,3.33
387,Russell,US,2022-09-23 19:58:36,32.3502,-85.1999,83.01,23,0,6.17
388,Ayagoz,KZ,2022-09-23 19:58:37,47.9714,80.4392,56.21,55,0,10.36
389,Tayoltita,MX,2022-09-23 19:58:37,24.0833,-105.9333,85.05,45,20,6.69
390,Cockburn Town,TC,2022-09-23 19:58:37,21.4612,-71.1419,83.1,76,94,4.97
391,Port Hedland,AU,2022-09-23 19:55:22,-20.3167,118.5667,69.85,73,0,8.05
392,Serpa,PT,2022-09-23 19:58:38,37.9458,-7.5975,73.36,46,52,11.34
393,Cayenne,GF,2022-09-23 19:58:39,4.9333,-52.3333,89.64,58,0,9.22
394,Obihiro,JP,2022-09-23 19:58:39,42.9172,143.2044,60.87,98,100,1.39
395,Marsella,FR,2022-09-23 19:58:39,43.297,5.3811,69.76,54,100,7.47
396,Muzhi,RU,2022-09-23 19:58:40,65.3667,64.6667,34.63,81,9,11.97
397,Saraza,PH,2022-09-23 19:58:40,8.7356,117.78,78.89,84,76,4.79
398,Lahaina,US,2022-09-23 19:58:40,20.8783,-156.6825,84.81,72,100,3.78
399,Medvedok,RU,2022-09-23 19:58:41,57.3891,50.0351,59.14,57,100,5.84
400,Necochea,AR,2022-09-23 19:58:41,-38.5473,-58.7368,60.84,52,33,3.89
401,Carnduff,CA,2022-09-23 19:58:41,49.1667,-101.8009,51.39,85,100,6.13
402,Viking,CA,2022-09-23 19:58:42,53.1001,-111.7684,64.26,28,95,14.92
403,Guane,CU,2022-09-23 19:58:42,22.2025,-84.0875,84.61,68,66,2.86
404,Lafiagi,NG,2022-09-23 19:58:42,8.8667,5.4167,76.5,92,77,3.6
405,Mountain Home,US,2022-09-23 19:58:42,43.133,-115.6912,73.98,21,0,9.19
406,Pedasi,PA,2022-09-23 19:58:43,7.5333,-80.0333,89.06,74,67,3.85
407,Bani Walid,LY,2022-09-23 19:58:43,31.7566,13.9942,72.12,70,57,16.06
408,Villacarrillo,ES,2022-09-23 19:58:44,38.1156,-3.0848,71.73,41,75,2.95
409,Ust-Nera,RU,2022-09-23 19:58:44,64.5667,143.2,13.6,97,75,2.26
410,Pizarro,CO,2022-09-23 19:58:44,4.9533,-77.366,81.95,76,92,7.74
411,Pimentel,PE,2022-09-23 19:58:45,-6.8367,-79.9342,68.29,64,0,18.41
412,Englehart,CA,2022-09-23 19:58:45,47.8169,-79.8664,59.02,51,75,13.8
413,Nuevo Progreso,MX,2022-09-23 19:58:45,23.1667,-97.95,86.47,63,14,5.01
414,Port Augusta,AU,2022-09-23 19:58:46,-32.5,137.7667,51.94,80,97,11.25
415,Akdepe,TM,2022-09-23 19:58:46,42.0551,59.3788,66.29,14,0,8.81
416,Qasigiannguit,GL,2022-09-23 19:58:46,68.8193,-51.1922,34.77,100,100,2.42
417,Kamien Pomorski,PL,2022-09-23 19:58:47,53.9685,14.7726,44.96,55,100,4.94
418,Talara,PE,2022-09-23 19:58:47,-4.5772,-81.2719,72.36,64,0,16.11
419,Kalakamati,BW,2022-09-23 19:59:48,-20.5929,27.3121,75.74,38,10,14.07
420,Sidi Ali,DZ,2022-09-23 19:59:48,36.0998,0.4206,73.6,55,1,6.29
421,Jacqueville,CI,2022-09-23 19:59:48,5.2052,-4.4146,76.24,91,87,9.1
422,Cabo Rojo,PR,2022-09-23 19:59:49,18.0866,-67.1457,85.96,81,80,14.12
423,Wilmington,US,2022-09-23 19:56:34,34.2257,-77.9447,77.0,38,0,8.99
424,Sabratah,LY,2022-09-23 19:59:49,32.7933,12.4885,75.4,67,21,15.43
425,Dagana,MR,2022-09-23 19:59:50,16.5165,-15.5068,90.23,51,25,15.99
426,Aleksandrov Gay,RU,2022-09-23 19:59:50,50.147,48.5704,67.17,69,100,11.72
427,La Ronge,CA,2022-09-23 19:59:50,55.1001,-105.2842,62.85,51,75,9.22
428,Rawson,AR,2022-09-23 19:59:51,-43.3002,-65.1023,59.9,47,67,11.25
429,Taree,AU,2022-09-23 19:59:51,-31.9,152.4667,61.11,97,51,3.06
430,Camopi,GF,2022-09-23 19:59:51,3.1655,-52.3158,96.37,29,27,1.52
431,Luanda,AO,2022-09-23 19:59:52,-8.8368,13.2343,71.87,87,78,11.34
432,Cumberland,US,2022-09-23 19:59:52,35.0502,-78.8664,77.58,32,0,5.99
433,Bend,US,2022-09-23 19:59:52,44.0582,-121.3153,74.14,26,0,4.61
434,San Policarpo,PH,2022-09-23 19:59:53,12.1791,125.5072,77.7,88,100,9.37
435,Nizhniy Odes,RU,2022-09-23 19:59:53,63.6445,54.856,40.71,95,82,5.57
436,Oistins,BB,2022-09-23 19:59:53,13.0667,-59.5333,86.09,70,20,13.8
437,Sarakhs,IR,2022-09-23 19:59:54,36.5449,61.1577,72.23,15,0,4.34
438,Amposta,ES,2022-09-23 19:59:54,40.7131,0.581,74.23,80,92,12.46
439,Erzin,TR,2022-09-23 19:59:55,36.9559,36.2,69.71,70,40,1.77
440,Kanor,IN,2022-09-23 19:59:55,24.4333,74.2667,71.56,80,96,10.85
441,Pochutla,MX,2022-09-23 19:59:56,15.7432,-96.4661,79.12,83,99,3.11
442,Chunskiy,RU,2022-09-23 19:59:56,56.0815,99.6342,36.73,87,95,4.21
443,Arkhipovka,RU,2022-09-23 19:59:57,56.6629,41.2543,52.32,84,100,9.01
444,Svetlyy,RU,2022-09-23 19:59:57,54.675,20.1347,52.97,84,100,4.43
445,Usak,TR,2022-09-23 19:59:58,38.5,29.4167,51.66,48,100,7.31
446,Tual,ID,2022-09-23 19:59:58,-5.6667,132.75,81.73,76,42,16.44
447,Xiongzhou,CN,2022-09-23 19:59:58,25.1167,114.3,70.86,72,3,1.79
448,Tigil,RU,2022-09-23 19:59:59,57.8,158.6667,38.84,88,90,7.74
449,Rudnogorsk,RU,2022-09-23 19:59:59,57.2639,103.7519,31.62,91,84,5.26
450,Yar-Sale,RU,2022-09-23 19:59:59,66.8333,70.8333,35.11,99,100,9.15
451,Umkomaas,ZA,2022-09-23 20:00:00,-30.2067,30.7978,66.6,85,100,7.14
452,Biltine,TD,2022-09-23 20:00:00,14.5333,20.9167,87.37,31,5,8.23
453,Abha,SA,2022-09-23 20:00:01,18.2164,42.5053,69.42,44,95,6.93
454,Mitsamiouli,KM,2022-09-23 20:00:01,-11.3847,43.2844,76.12,84,3,2.24
455,Calvia,ES,2022-09-23 20:00:01,39.5657,2.5062,74.91,68,99,10.45
456,Kerava,FI,2022-09-23 20:00:02,60.4034,25.105,50.83,96,20,4.61
457,Niquero,CU,2022-09-23 20:00:03,20.0431,-77.5828,85.91,67,34,4.97
458,Karatuzskoye,RU,2022-09-23 20:00:03,53.6072,92.8667,47.01,74,100,3.71
459,Kudahuvadhoo,MV,2022-09-23 20:00:04,2.6708,72.8944,82.69,71,17,7.87
460,Worcester,US,2022-09-23 20:00:04,42.3334,-71.8328,58.66,56,6,8.99
461,Masumbwe,TZ,2022-09-23 20:00:05,-3.6333,32.1833,76.21,37,70,3.29
462,Muncar,ID,2022-09-23 20:00:06,-8.4333,114.3333,75.63,91,41,1.61
463,Tilichiki,RU,2022-09-23 20:00:06,60.4667,166.1,36.97,73,7,9.04
464,Helong,CN,2022-09-23 20:00:07,42.5397,128.9972,48.67,92,100,18.48
465,Whitehorse,CA,2022-09-23 20:01:07,60.7161,-135.0538,45.37,65,75,18.41
466,Taltal,CL,2022-09-23 20:00:27,-25.4,-70.4833,61.21,65,22,5.21
467,Bay Roberts,CA,2022-09-23 20:01:08,47.5999,-53.2648,64.51,77,100,15.48
468,Hudson Bay,CA,2022-09-23 20:01:08,52.85,-102.3842,64.13,40,84,7.92
469,Suez,EG,2022-09-23 20:00:33,29.9737,32.5263,75.81,72,0,10.0
470,Nizhniy Kuranakh,RU,2022-09-23 20:01:09,58.8353,125.4869,42.57,89,100,8.61
471,Nishihara,JP,2022-09-23 20:01:09,26.1842,127.7558,79.88,94,75,6.91
472,Jiwani,PK,2022-09-23 20:01:10,25.05,61.7417,80.74,85,100,7.63
473,Dafeng,CN,2022-09-23 20:01:10,23.4517,108.5881,76.35,71,74,6.89
474,Ferrol,ES,2022-09-23 20:01:10,43.4832,-8.2369,64.72,95,100,9.1
475,Itarema,BR,2022-09-23 20:01:11,-2.9248,-39.9167,80.76,74,0,16.31
476,Leshukonskoye,RU,2022-09-23 20:01:11,64.8989,45.7622,42.37,88,100,3.69
477,Golden,US,2022-09-23 19:59:23,39.7555,-105.2211,83.25,21,0,11.01
478,Plettenberg Bay,ZA,2022-09-23 20:01:12,-34.0527,23.3716,57.58,65,100,7.43
479,Lima,PE,2022-09-23 20:01:12,-12.0432,-77.0282,64.24,71,31,10.49
480,Sinnamary,GF,2022-09-23 20:01:12,5.3833,-52.95,83.43,67,3,8.88
481,Campos,BR,2022-09-23 19:58:41,-21.75,-41.3,75.25,64,0,29.93
482,Guerrero Negro,MX,2022-09-23 20:01:13,27.9769,-114.0611,81.77,52,5,12.44
483,Riverton,US,2022-09-23 20:00:12,40.5219,-111.9391,74.44,35,0,8.01
484,Rumonge,BI,2022-09-23 20:01:13,-3.9736,29.4386,76.05,67,99,2.51
485,Waipawa,NZ,2022-09-23 20:01:14,-41.4122,175.5153,51.1,98,100,8.16
486,Ketchikan,US,2022-09-23 20:01:14,55.3422,-131.6461,52.2,95,100,11.41
487,Bulawayo,ZW,2022-09-23 20:00:24,-20.15,28.5833,69.85,40,4,13.44
488,Colac,AU,2022-09-23 20:01:15,-38.3333,143.5833,44.83,62,53,7.18
489,Nakamura,JP,2022-09-23 20:01:15,32.9833,132.9333,67.77,94,10,5.44
490,Alekseyevskoye,RU,2022-09-23 20:01:15,55.3071,50.1135,64.78,29,100,8.63
491,Santa Catarina De Tepehuanes,MX,2022-09-23 20:01:16,25.35,-105.7333,77.31,40,6,5.57
492,Kloulklubed,PW,2022-09-23 20:01:16,7.0419,134.2556,84.92,72,100,14.2
493,Paamiut,GL,2022-09-23 20:01:17,61.994,-49.6678,47.64,93,100,26.42
494,Andenes,NO,2022-09-23 20:01:17,69.3143,16.1194,51.78,87,75,3.44
495,Poronaysk,RU,2022-09-23 20:01:17,49.2167,143.1167,53.37,96,100,4.16
496,Abhar,IR,2022-09-23 20:01:18,36.1468,49.218,69.51,30,1,7.25
497,Koutiala,ML,2022-09-23 20:01:18,12.3917,-5.4642,78.19,77,40,7.27
498,Valdez,EC,2022-09-23 20:01:18,1.2492,-78.9831,79.25,78,22,12.3
499,Phulabani,IN,2022-09-23 20:01:19,20.4667,84.2333,71.58,94,23,2.89
500,Rio Gallegos,AR,2022-09-23 19:58:32,-51.6226,-69.2181,57.25,28,75,14.97
501,Aksarka,RU,2022-09-23 20:01:19,66.5606,67.7975,35.74,97,100,4.27
502,Gariaband,IN,2022-09-23 20:01:20,20.635,82.0614,70.66,96,21,4.21
503,The Valley,AI,2022-09-23 20:00:04,18.217,-63.0578,87.82,71,73,13.11
504,Chitral,PK,2022-09-23 20:01:20,35.8462,71.7858,69.85,64,61,4.74
505,Iberia,US,2022-09-23 20:01:21,29.9502,-91.7507,95.97,45,6,2.93
506,Barcelos,PT,2022-09-23 20:01:21,41.5388,-8.6151,67.91,86,51,7.29
507,Bathsheba,BB,2022-09-23 20:01:21,13.2167,-59.5167,84.07,71,12,11.41
508,Linguere,SN,2022-09-23 20:01:22,15.3953,-15.1193,83.89,70,55,10.13
509,Lakes Entrance,AU,2022-09-23 20:01:22,-37.8811,147.981,50.16,92,100,9.71
510,Abja-Paluoja,EE,2022-09-23 20:01:23,58.1253,25.3497,42.13,92,46,2.44
511,Nioro,GM,2022-09-23 20:01:23,13.35,-15.75,77.22,92,97,5.46
512,Dire Dawa,ET,2022-09-23 20:01:24,9.5931,41.8661,72.75,68,100,14.79
513,Maniitsoq,GL,2022-09-23 20:02:24,65.4167,-52.9,42.13,98,100,25.55
514,Santa Isabel Do Rio Negro,BR,2022-09-23 20:02:24,-0.4139,-65.0192,86.02,61,46,5.21
515,Bemidji,US,2022-09-23 20:02:25,47.4736,-94.8803,56.17,74,100,11.5
516,Cabatuan,PH,2022-09-23 20:02:25,10.8794,122.486,74.26,89,99,2.62
517,Itoigawa,JP,2022-09-23 20:02:25,37.0333,137.85,70.02,96,100,6.04
518,Lewiston,US,2022-09-23 19:57:47,44.1003,-70.2148,55.94,69,63,3.0
519,Lima Duarte,BR,2022-09-23 20:02:26,-21.8425,-43.7931,70.59,55,55,4.88
520,Mango,US,2022-09-23 20:02:26,27.9797,-82.3065,95.32,72,75,8.05
521,Ranong,TH,2022-09-23 20:02:27,9.9658,98.6348,77.49,89,100,6.17
522,Carutapera,BR,2022-09-23 20:02:27,-1.195,-46.02,82.06,69,1,10.56
523,Laja,CL,2022-09-23 20:01:48,-37.2667,-72.7,67.82,42,41,0.72
524,Dingle,PH,2022-09-23 20:02:28,10.9995,122.6711,73.71,93,100,2.42
525,Mahon,ES,2022-09-23 20:02:28,39.8885,4.2658,72.16,60,0,5.75
526,Dahod,IN,2022-09-23 20:02:29,22.8333,74.2667,73.69,90,70,14.07
527,Tibati,CM,2022-09-23 20:02:29,6.4667,12.6333,66.02,98,100,1.57
528,Bilma,NE,2022-09-23 20:02:29,18.6853,12.9164,93.78,12,0,6.02
529,Ewa Beach,US,2022-09-23 19:59:53,21.3156,-158.0072,84.4,69,97,8.16
530,Jonesboro,US,2022-09-23 20:00:17,35.8423,-90.7043,80.04,27,36,3.89
531,Diego De Almagro,CL,2022-09-23 20:02:30,-26.3667,-70.05,72.46,17,0,12.21
532,Sambava,MG,2022-09-23 20:02:31,-14.2667,50.1667,70.52,96,100,10.94
533,Olinda,BR,2022-09-23 20:02:31,-8.0089,-34.8553,78.69,73,16,8.55
534,Mitu,CO,2022-09-23 20:02:32,1.1983,-70.1733,84.31,63,99,1.43
535,Praxedis Guerrero,MX,2022-09-23 20:02:32,31.3667,-106.0167,88.23,25,0,3.96
536,Saint-Georges,GD,2022-09-23 20:00:31,12.0564,-61.7485,83.98,72,96,11.23
537,Marsa Matruh,EG,2022-09-23 20:02:33,31.3525,27.2453,75.65,66,1,13.94
538,Osypenko,UA,2022-09-23 20:02:33,46.9136,36.8253,53.56,60,16,7.18
539,Walsrode,DE,2022-09-23 20:02:33,52.8667,9.6,59.18,60,100,2.33
540,Winfield,US,2022-09-23 20:00:12,37.2398,-96.9956,74.5,35,100,11.74
541,Honggang,CN,2022-09-23 20:02:34,46.4667,124.8667,47.08,95,54,11.79
542,Dauriya,RU,2022-09-23 20:02:34,49.9333,116.8667,45.39,67,60,6.62
543,Padang,ID,2022-09-23 20:02:34,-0.9492,100.3543,75.25,86,75,3.31
544,Lithakia,GR,2022-09-23 20:02:35,37.7167,20.8333,58.37,55,11,5.5
545,Puerto Narino,CO,2022-09-23 20:02:35,-3.7703,-70.3831,75.16,91,100,2.68
546,Sabzevar,IR,2022-09-23 20:02:35,36.2126,57.6819,70.88,21,0,9.22
547,Virginia Beach,US,2022-09-23 20:00:57,36.8529,-75.978,72.01,42,0,5.99
548,Venezuela,VE,2022-09-23 20:02:36,8.0,-66.0,90.01,54,100,7.18
549,Knysna,ZA,2022-09-23 20:02:36,-34.0363,23.0471,55.89,70,100,5.06
550,Vestmannaeyjar,IS,2022-09-23 20:02:38,63.4427,-20.2734,49.77,83,59,9.42
551,Vagur,FO,2022-09-23 20:02:38,61.4732,-6.8119,50.5,78,13,16.04
552,Grand Forks,US,2022-09-23 20:02:38,47.9417,-97.4337,62.53,59,100,16.11
