City_ID,City,Country,Date,Lat,Lng,Max Temp,Humidity,Cloudiness,Wind Speed
0,Kongoussi,BF,2022-09-22 19:10:59,13.3258,-1.5347,77.45,79,99,4.21
1,Hobart,AU,2022-09-22 19:10:59,-42.8794,147.3294,54.27,93,100,0.0
2,Busselton,AU,2022-09-22 19:11:00,-33.65,115.3333,45.34,82,0,8.12
3,Sur,OM,2022-09-22 19:11:00,22.5667,59.5289,82.22,71,1,14.5
4,Touros,BR,2022-09-22 19:11:01,-5.1989,-35.4608,81.36,65,7,15.01
5,Avarua,CK,2022-09-22 19:11:01,-21.2078,-159.775,75.25,73,75,12.66
6,Ushuaia,AR,2022-09-22 19:11:02,-54.8,-68.3,51.46,32,20,11.5
7,Atuona,PF,2022-09-22 19:07:06,-9.8,-139.0333,76.71,74,8,16.91
8,Nishihara,JP,2022-09-22 19:11:03,26.1842,127.7558,78.85,97,40,4.61
9,Khatanga,RU,2022-09-22 19:11:03,71.9667,102.5,20.1,85,18,10.98
10,Damghan,IR,2022-09-22 19:11:04,36.1683,54.348,77.22,18,0,4.45
11,Nikolskoye,RU,2022-09-22 19:11:04,59.7035,30.7861,48.09,96,100,3.78
12,Saint-Philippe,RE,2022-09-22 19:11:05,-21.3585,55.7679,70.14,87,43,14.83
13,Chokurdakh,RU,2022-09-22 19:11:06,70.6333,147.9167,33.19,93,100,8.05
14,Ponta Do Sol,PT,2022-09-22 19:11:06,32.6667,-17.1,75.83,92,32,1.59
15,Vaini,TO,2022-09-22 19:11:07,-21.2,-175.2,75.69,86,78,18.5
16,Bredasdorp,ZA,2022-09-22 19:11:07,-34.5322,20.0403,57.25,62,98,17.2
17,Punta Arenas,CL,2022-09-22 19:11:08,-53.15,-70.9167,48.31,66,0,9.22
18,Bambous Virieux,MU,2022-09-22 19:11:08,-20.3428,57.7575,72.21,83,75,13.8
19,Vardo,NO,2022-09-22 19:11:09,70.3705,31.1107,48.18,100,100,4.61
20,New Norfolk,AU,2022-09-22 19:11:09,-42.7826,147.0587,53.92,89,100,1.05
21,Cherskiy,RU,2022-09-22 19:11:10,68.75,161.3,34.0,81,6,10.02
22,Maunabo,PR,2022-09-22 19:11:11,18.0072,-65.8993,91.22,83,99,11.21
23,Mataura,NZ,2022-09-22 19:11:12,-46.1927,168.8643,39.47,98,18,1.79
24,Mar Del Plata,AR,2022-09-22 19:11:12,-38.0023,-57.5575,57.22,66,0,16.11
25,Rikitea,PF,2022-09-22 19:11:13,-23.1203,-134.9692,73.09,73,8,12.59
26,Port Lincoln,AU,2022-09-22 19:11:13,-34.7333,135.8667,55.29,91,100,5.93
27,Inawayan,PH,2022-09-22 19:11:14,6.9608,125.4733,78.73,86,100,3.98
28,Morondava,MG,2022-09-22 19:07:23,-20.2833,44.2833,76.95,68,52,13.4
29,Nome,US,2022-09-22 19:11:14,64.5011,-165.4064,44.67,100,100,14.97
30,Balabac,PH,2022-09-22 19:11:15,7.9868,117.0645,80.87,76,100,5.53
31,Carnarvon,AU,2022-09-22 19:11:07,-24.8667,113.6333,64.92,76,0,16.84
32,Kapaa,US,2022-09-22 19:11:15,22.0752,-159.319,82.38,80,75,6.91
33,Saint-Leu,RE,2022-09-22 19:11:16,-21.15,55.2833,68.83,77,2,2.82
34,Alice Springs,AU,2022-09-22 19:11:16,-23.7,133.8833,51.35,50,0,0.0
35,Hasaki,JP,2022-09-22 19:11:17,35.7333,140.8333,68.29,94,100,15.23
36,Salisbury,GB,2022-09-22 19:11:17,51.0693,-1.7957,62.69,76,100,8.05
37,Arraial Do Cabo,BR,2022-09-22 19:06:31,-22.9661,-42.0278,73.26,83,75,8.05
38,Moroni,KM,2022-09-22 19:11:18,-11.7022,43.2551,75.09,78,79,1.14
39,Ziarat,PK,2022-09-22 19:11:19,30.3823,67.7282,61.79,32,0,3.76
40,Iqaluit,CA,2022-09-22 19:09:54,63.7506,-68.5145,36.7,44,100,13.0
41,Airai,TL,2022-09-22 19:11:19,-8.9266,125.4092,59.02,56,43,2.51
42,Codrington,AU,2022-09-22 19:11:20,-38.2667,141.9667,47.53,94,100,4.81
43,Mahebourg,MU,2022-09-22 19:11:20,-20.4081,57.7,72.25,83,75,13.8
44,Ornskoldsvik,SE,2022-09-22 19:12:21,63.2909,18.7153,47.35,100,0,6.91
45,Havre-Saint-Pierre,CA,2022-09-22 19:12:21,50.2334,-63.5986,55.76,94,100,8.05
46,Forest Hills,US,2022-09-22 19:10:07,42.9595,-85.4898,63.41,58,75,17.27
47,Severo-Kurilsk,RU,2022-09-22 19:12:21,50.6789,156.125,50.2,83,11,12.75
48,Qaanaaq,GL,2022-09-22 19:12:22,77.484,-69.3632,20.61,63,21,7.54
49,Culfa,AZ,2022-09-22 19:12:22,38.9558,45.6308,67.87,46,3,4.12
50,Vostok,RU,2022-09-22 19:12:23,46.4856,135.8833,39.51,82,100,4.5
51,Indramayu,ID,2022-09-22 19:12:24,-6.3264,108.32,78.64,79,100,7.4
52,Puerto Ayora,EC,2022-09-22 19:12:24,-0.7393,-90.3518,76.96,87,87,5.99
53,Kangaatsiaq,GL,2022-09-22 19:12:25,68.3065,-53.4641,35.35,67,100,5.75
54,Kavieng,PG,2022-09-22 19:12:25,-2.5744,150.7967,79.66,77,10,5.46
55,Nova Olimpia,BR,2022-09-22 19:12:26,-14.7972,-57.2881,91.51,43,93,12.24
56,Hithadhoo,MV,2022-09-22 19:12:27,-0.6,73.0833,82.47,70,3,13.04
57,Sitka,US,2022-09-22 19:12:28,57.0531,-135.33,55.29,76,75,4.61
58,Lastoursville,GA,2022-09-22 19:12:28,-0.8143,12.7287,73.06,94,34,1.43
59,Glenwood Springs,US,2022-09-22 19:11:54,39.5505,-107.3248,70.34,93,100,9.22
60,Dingle,PH,2022-09-22 19:12:29,10.9995,122.6711,75.85,89,94,3.15
61,Laredo,US,2022-09-22 19:12:03,27.5064,-99.5075,91.69,43,0,10.36
62,Saskylakh,RU,2022-09-22 19:12:30,71.9167,114.0833,17.94,89,58,4.52
63,Ilulissat,GL,2022-09-22 19:12:32,69.2167,-51.1,35.62,75,75,8.05
64,Chuy,UY,2022-09-22 19:12:33,-33.6971,-53.4616,53.62,66,100,15.43
65,La Ronge,CA,2022-09-22 19:12:34,55.1001,-105.2842,64.62,34,20,9.22
66,Tasiilaq,GL,2022-09-22 19:12:34,65.6145,-37.6368,41.16,62,12,9.06
67,Imperatriz,BR,2022-09-22 19:12:35,-5.5264,-47.4917,99.41,25,80,11.01
68,Bluff,NZ,2022-09-22 19:12:35,-46.6,168.3333,39.79,81,52,5.14
69,Charters Towers,AU,2022-09-22 19:12:36,-20.1,146.2667,64.58,35,23,7.87
70,Victoria,HK,2022-09-22 19:09:01,22.2855,114.1577,83.17,83,58,3.0
71,Omboue,GA,2022-09-22 19:12:36,-1.5746,9.2618,77.36,84,91,7.56
72,Khakhea,BW,2022-09-22 19:12:37,-24.6895,23.494,62.28,14,0,4.03
73,Kodiak,US,2022-09-22 19:12:37,57.79,-152.4072,51.31,76,100,0.0
74,San Patricio,US,2022-09-22 19:12:38,28.017,-97.5169,94.95,42,0,6.33
75,Sao Jose Do Belmonte,BR,2022-09-22 19:12:38,-7.8614,-38.7597,93.83,23,99,7.52
76,Margate,GB,2022-09-22 19:12:39,51.3813,1.3862,61.3,74,100,3.0
77,Ca Mau,VN,2022-09-22 19:10:12,9.1769,105.15,76.23,88,100,3.4
78,Babu,CN,2022-09-22 19:12:39,24.4167,111.5167,75.06,83,94,3.53
79,Georgetown,MY,2022-09-22 19:12:40,5.4112,100.3354,78.89,85,20,0.0
80,Terney,RU,2022-09-22 19:12:40,45.0503,136.6092,50.16,83,100,6.44
81,Torbay,CA,2022-09-22 19:12:41,47.6666,-52.7314,64.27,96,100,19.57
82,Bengkulu,ID,2022-09-22 19:12:41,-3.8004,102.2655,74.44,89,99,3.51
83,Necochea,AR,2022-09-22 19:12:41,-38.5473,-58.7368,52.59,66,64,9.06
84,Rawson,AR,2022-09-22 19:08:15,-43.3002,-65.1023,57.49,62,75,5.75
85,San Cristobal,VE,2022-09-22 19:12:42,7.7669,-72.225,71.78,72,100,1.05
86,Cape Town,ZA,2022-09-22 19:12:43,-33.9258,18.4232,57.88,84,87,7.0
87,Maniitsoq,GL,2022-09-22 19:12:43,65.4167,-52.9,41.49,97,100,20.31
88,Bethel,US,2022-09-22 19:13:43,41.3712,-73.414,62.02,87,40,4.61
89,Yellowknife,CA,2022-09-22 19:13:44,62.456,-114.3525,61.32,59,40,17.27
90,Wentzville,US,2022-09-22 19:09:48,38.8114,-90.8529,73.87,50,100,3.0
91,Bejar,ES,2022-09-22 19:13:44,40.3864,-5.7634,65.01,43,21,2.39
92,Nemuro,JP,2022-09-22 19:13:45,43.3236,145.575,59.9,78,93,13.42
93,Dunedin,NZ,2022-09-22 19:13:45,-45.8742,170.5036,45.81,87,5,1.01
94,Skjervoy,NO,2022-09-22 19:13:45,70.0311,20.9714,48.2,80,100,15.61
95,Oro Valley,US,2022-09-22 19:13:46,32.3909,-110.9665,93.65,42,11,4.0
96,Golden,US,2022-09-22 19:11:26,39.7555,-105.2211,68.09,82,100,0.0
97,Mwense,ZM,2022-09-22 19:13:46,-10.3845,28.698,79.68,17,88,4.72
98,Hermanus,ZA,2022-09-22 19:13:46,-34.4187,19.2345,55.8,74,52,21.05
99,Ustye,RU,2022-09-22 19:13:47,59.6304,39.736,46.4,89,100,4.52
100,Husavik,IS,2022-09-22 19:13:47,66.0449,-17.3389,40.59,90,100,2.42
101,Labuhan,ID,2022-09-22 19:13:48,-6.8844,112.2051,78.21,83,13,8.41
102,Talnakh,RU,2022-09-22 19:13:48,69.4865,88.3972,33.44,99,100,4.99
103,Lebu,CL,2022-09-22 19:13:48,-37.6167,-73.65,53.87,83,100,5.48
104,Lorengau,PG,2022-09-22 19:13:49,-2.0226,147.2712,79.18,80,17,1.05
105,Qeshm,IR,2022-09-22 19:13:49,26.9581,56.2719,87.67,79,6,6.15
106,Moerai,PF,2022-09-22 19:13:50,-22.4333,-151.3333,72.45,75,73,27.58
107,Chamba,IN,2022-09-22 19:13:50,32.5667,76.1333,70.21,83,5,6.4
108,Mogadishu,SO,2022-09-22 19:13:50,2.0371,45.3438,77.54,83,98,15.28
109,Bintulu,MY,2022-09-22 19:13:51,3.1667,113.0333,78.44,82,99,4.16
110,Kavaratti,IN,2022-09-22 19:13:51,10.5669,72.642,80.89,75,100,8.43
111,Korla,CN,2022-09-22 19:13:52,41.7597,86.1469,72.54,19,100,5.66
112,Rocha,UY,2022-09-22 19:13:52,-34.4833,-54.3333,52.93,60,100,10.45
113,Yining,CN,2022-09-22 19:13:52,29.0361,114.5636,63.86,92,100,0.31
114,Jiaocheng,CN,2022-09-22 19:13:53,24.6774,116.1389,72.88,81,10,0.36
115,Barrow,US,2022-09-22 19:13:53,71.2906,-156.7887,33.82,93,100,14.97
116,Mount Isa,AU,2022-09-22 19:13:54,-20.7333,139.5,64.17,42,0,5.75
117,Buluang,PH,2022-09-22 19:13:54,13.3068,123.3425,76.66,91,39,2.21
118,Banes,CU,2022-09-22 19:13:54,20.9625,-75.7186,92.19,48,73,6.53
119,Vao,NC,2022-09-22 19:13:55,-22.6667,167.4833,71.28,77,97,15.82
120,Chimore,BO,2022-09-22 19:13:55,-16.9833,-65.1333,68.18,75,100,4.07
121,Cap Malheureux,MU,2022-09-22 19:13:56,-19.9842,57.6142,72.46,73,2,8.99
122,Tomohon,ID,2022-09-22 19:13:56,1.3346,124.8392,65.34,91,79,1.88
123,Oktyabrskiy,RU,2022-09-22 19:13:56,54.4815,53.471,63.95,29,100,4.94
124,Vrable,SK,2022-09-22 19:09:03,48.2437,18.3085,53.69,68,28,7.34
125,Pisco,PE,2022-09-22 19:13:57,-13.7,-76.2167,68.05,60,0,19.57
126,Provideniya,RU,2022-09-22 19:13:57,64.3833,-173.3,43.07,93,100,1.83
127,Qurayyat,SA,2022-09-22 19:13:57,31.3318,37.3428,73.58,43,0,9.22
128,Tual,ID,2022-09-22 19:13:58,-5.6667,132.75,80.73,77,74,8.01
129,Leningradskiy,RU,2022-09-22 19:13:58,69.3833,178.4167,37.04,96,100,22.28
130,Copiapo,CL,2022-09-22 19:13:59,-27.3667,-70.3333,60.49,15,0,10.8
131,Buin,CL,2022-09-22 19:13:59,-33.7333,-70.75,71.92,26,100,6.91
132,Castro,BR,2022-09-22 19:15:00,-24.7911,-50.0119,60.03,77,87,11.48
133,Northam,GB,2022-09-22 19:15:00,51.0333,-4.2167,61.39,95,100,13.33
134,Hilo,US,2022-09-22 19:15:01,19.7297,-155.09,83.62,72,20,8.99
135,Auki,SB,2022-09-22 19:15:02,-8.7676,160.7034,74.77,89,47,4.32
136,Roald,NO,2022-09-22 19:15:02,62.5833,6.1333,59.76,77,75,10.36
137,Clyde River,CA,2022-09-22 19:15:03,70.4692,-68.5914,30.43,74,20,4.61
138,Zhezkazgan,KZ,2022-09-22 19:15:03,47.8043,67.7144,68.97,34,0,9.19
139,Fortuna,US,2022-09-22 19:15:04,40.5982,-124.1573,70.93,73,0,1.99
140,Adrar,MR,2022-09-22 19:15:04,20.5022,-10.0711,94.42,31,17,10.98
141,Cidreira,BR,2022-09-22 19:15:05,-30.1811,-50.2056,61.95,75,2,21.54
142,Thompson,CA,2022-09-22 19:13:06,55.7435,-97.8558,62.76,45,20,18.41
143,Dikson,RU,2022-09-22 19:15:06,73.5069,80.5464,29.57,85,100,24.23
144,Constitucion,CL,2022-09-22 19:15:06,-35.3333,-72.4167,59.95,65,82,18.54
145,Albany,US,2022-09-22 19:10:31,42.6001,-73.9662,67.17,71,14,1.99
146,Shimanovsk,RU,2022-09-22 19:15:08,52.0,127.7,45.27,96,100,7.11
147,Faanui,PF,2022-09-22 19:15:08,-16.4833,-151.75,78.39,74,5,18.21
148,Norman Wells,CA,2022-09-22 19:15:08,65.282,-126.8329,46.44,87,75,4.61
149,Narsaq,GL,2022-09-22 19:15:09,60.9167,-46.05,46.62,83,100,3.56
150,Hualmay,PE,2022-09-22 19:15:09,-11.0964,-77.6139,66.06,69,96,11.83
151,Kozhva,RU,2022-09-22 19:15:10,65.1073,57.0459,41.97,83,100,7.25
152,Okha,RU,2022-09-22 19:15:11,53.5739,142.9478,48.13,81,100,9.28
153,Mehran,IR,2022-09-22 19:15:11,33.1222,46.1646,91.53,18,4,8.12
154,Beohari,IN,2022-09-22 19:15:12,24.05,81.3833,73.17,94,52,5.75
155,Azul,AR,2022-09-22 19:13:08,-36.777,-59.8585,57.34,47,97,9.53
156,Lata,PT,2022-09-22 19:15:12,40.1629,-8.3327,70.92,67,9,2.93
157,Abha,SA,2022-09-22 19:15:05,18.2164,42.5053,69.62,64,40,0.0
158,Takaka,NZ,2022-09-22 19:15:13,-40.85,172.8,51.91,76,100,9.69
159,Palembang,ID,2022-09-22 19:15:13,-2.9167,104.7458,75.29,100,20,0.0
160,Port Hardy,CA,2022-09-22 19:15:14,50.6996,-127.4199,53.78,94,40,2.3
161,Saint George,US,2022-09-22 19:10:18,37.1041,-113.5841,86.79,37,20,6.91
162,Manakara,MG,2022-09-22 19:15:15,-22.1333,48.0167,67.12,86,5,5.03
163,Luena,AO,2022-09-22 19:15:16,-11.7833,19.9167,72.55,39,99,2.53
164,Jumla,NP,2022-09-22 19:15:17,29.2747,82.1838,58.53,91,100,2.44
165,Laguna,US,2022-09-22 19:11:10,38.421,-121.4238,79.29,52,0,14.97
166,Tuktoyaktuk,CA,2022-09-22 19:15:18,69.4541,-133.0374,35.6,93,100,8.05
167,Ichinohe,JP,2022-09-22 19:15:18,40.2069,141.3017,61.36,98,100,2.44
168,Pacific Grove,US,2022-09-22 19:13:30,36.6177,-121.9166,78.39,72,0,11.01
169,Porto Velho,BR,2022-09-22 19:15:19,-8.7619,-63.9039,96.85,36,40,8.05
170,Ulaangom,MN,2022-09-22 19:15:19,49.9811,92.0667,49.39,57,3,1.36
171,Jamestown,US,2022-09-22 19:15:20,42.097,-79.2353,58.59,76,100,14.97
172,Masterton,NZ,2022-09-22 19:15:21,-40.9597,175.6575,55.89,99,100,9.98
173,Bronderslev,DK,2022-09-22 19:15:21,57.2702,9.941,54.9,80,100,7.18
174,Cabra,ES,2022-09-22 19:15:22,37.4725,-4.4421,76.48,43,0,3.31
175,Guerrero Negro,MX,2022-09-22 19:15:22,27.9769,-114.0611,81.3,55,13,9.06
176,Petrokamenskoye,RU,2022-09-22 19:15:23,57.716,60.6484,53.37,76,100,3.74
177,Gazanjyk,TM,2022-09-22 19:15:23,39.2446,55.5154,81.32,14,0,11.32
178,Bichura,RU,2022-09-22 19:16:24,50.5881,107.6022,41.18,57,85,5.53
179,Cabo San Lucas,MX,2022-09-22 19:14:51,22.8909,-109.9124,91.62,70,20,6.91
180,Bogotol,RU,2022-09-22 19:16:24,56.2078,89.5342,54.93,80,100,15.77
181,Vila Franca Do Campo,PT,2022-09-22 19:16:25,37.7167,-25.4333,75.61,75,86,2.26
182,Panama City,PA,2022-09-22 19:16:25,8.9936,-79.5197,84.43,81,40,11.5
183,Beringovskiy,RU,2022-09-22 19:16:26,63.05,179.3167,39.13,93,100,7.31
184,San Andres,CO,2022-09-22 19:16:26,12.5847,-81.7006,84.22,79,75,6.91
185,Rawlins,US,2022-09-22 19:16:27,41.7911,-107.2387,57.09,72,75,14.97
186,Axim,GH,2022-09-22 19:16:28,4.8699,-2.2405,75.4,90,52,5.86
187,Promyshlennyy,RU,2022-09-22 19:16:28,67.5833,63.9167,34.32,83,98,19.06
188,Bathsheba,BB,2022-09-22 19:16:29,13.2167,-59.5167,88.41,70,40,12.66
189,Shu,KZ,2022-09-22 19:16:29,43.5983,73.7614,71.31,23,0,7.76
190,Atuntaqui,EC,2022-09-22 19:16:30,0.3333,-78.2167,69.75,49,84,5.66
191,Ust-Kan,RU,2022-09-22 19:16:30,50.9276,84.761,47.66,74,0,1.52
192,Grindavik,IS,2022-09-22 19:16:30,63.8424,-22.4338,48.15,87,75,17.27
193,Upernavik,GL,2022-09-22 19:16:31,72.7868,-56.1549,32.7,62,100,2.82
194,Bud,US,2022-09-22 19:16:31,39.447,-86.1758,70.88,48,40,15.82
195,Svetlyy,RU,2022-09-22 19:16:32,54.675,20.1347,52.97,75,100,7.23
196,Saint-Francois,FR,2022-09-22 19:16:32,46.4154,3.9054,53.04,62,0,0.0
197,Elizabeth City,US,2022-09-22 19:16:32,36.2946,-76.2511,93.99,49,0,14.97
198,Luba,GQ,2022-09-22 19:16:33,3.4568,8.5547,78.69,86,100,4.76
199,Saldanha,ZA,2022-09-22 19:16:33,-33.0117,17.9442,57.92,78,100,10.49
200,Souillac,MU,2022-09-22 19:16:33,-20.5167,57.5167,71.98,83,75,13.8
201,Port Alfred,ZA,2022-09-22 19:16:34,-33.5906,26.891,63.18,87,1,8.01
202,Muros,ES,2022-09-22 19:16:34,42.7762,-9.0603,64.83,84,67,6.49
203,Heiligenhafen,DE,2022-09-22 19:16:35,54.3667,10.9833,50.76,80,97,11.34
204,North Bend,US,2022-09-22 19:16:26,43.4065,-124.2243,68.92,81,100,4.61
205,Ishigaki,JP,2022-09-22 19:16:35,24.3448,124.1572,75.33,100,75,8.05
206,Kaitangata,NZ,2022-09-22 19:16:36,-46.2817,169.8464,42.33,94,13,2.33
207,Codajas,BR,2022-09-22 19:16:36,-3.8367,-62.0569,102.04,23,75,4.12
208,Butaritari,KI,2022-09-22 19:16:36,3.0707,172.7902,80.49,75,100,7.83
209,Soller,ES,2022-09-22 19:16:37,39.7662,2.7152,75.85,65,0,1.01
210,Mount Gambier,AU,2022-09-22 19:16:37,-37.8333,140.7667,45.59,97,100,3.36
211,Ponta Delgada,PT,2022-09-22 19:16:38,37.7333,-25.6667,75.92,83,20,10.36
212,Prince Rupert,CA,2022-09-22 19:15:07,54.3161,-130.3201,51.89,93,100,16.11
213,Sola,VU,2022-09-22 19:16:38,-13.8833,167.55,75.87,94,26,2.3
214,Mayo,US,2022-09-22 19:12:45,38.8876,-76.5119,75.15,73,0,11.5
215,Gander,CA,2022-09-22 19:16:09,48.9682,-54.5906,62.73,88,100,18.01
216,Mackay,AU,2022-09-22 19:16:39,-21.15,149.2,62.69,91,2,5.14
217,Tenenkou,ML,2022-09-22 19:16:39,14.4572,-4.9169,80.83,61,100,16.69
218,Terrace Bay,CA,2022-09-22 19:16:40,48.7834,-87.1,49.48,55,9,13.94
219,Bouafle,CI,2022-09-22 19:16:40,6.9904,-5.7442,75.22,94,60,1.57
220,Raudeberg,NO,2022-09-22 19:16:40,61.9875,5.1352,54.27,1,100,15.35
221,Khash,IR,2022-09-22 19:16:41,28.2211,61.2158,74.57,14,0,4.7
222,North Branch,US,2022-09-22 19:16:41,45.5113,-92.9802,63.09,58,6,4.43
223,Klaksvik,FO,2022-09-22 19:16:41,62.2266,-6.589,50.92,82,18,12.48
224,Lasa,IT,2022-09-22 19:17:42,46.6166,10.7002,50.36,77,3,2.46
225,Fairbanks,US,2022-09-22 19:17:30,64.8378,-147.7164,40.6,95,100,4.61
226,Mongo,TD,2022-09-22 19:17:43,12.1844,18.693,83.23,57,39,2.33
227,Tessalit,ML,2022-09-22 19:17:43,20.1986,1.0114,95.4,12,9,11.54
228,Zhicheng,CN,2022-09-22 19:17:43,30.2956,111.5047,71.17,76,100,2.71
229,Imeni Poliny Osipenko,RU,2022-09-22 19:17:44,52.4201,136.4853,47.28,91,94,3.2
230,Falun,SE,2022-09-22 19:17:44,60.6036,15.626,50.41,93,100,5.77
231,Cairns,AU,2022-09-22 19:17:44,-16.9167,145.7667,75.07,91,100,6.91
232,Chumikan,RU,2022-09-22 19:17:45,54.7183,135.315,47.82,84,100,3.87
233,Champerico,GT,2022-09-22 19:17:45,14.3,-91.9167,86.54,77,100,4.9
234,San Quintin,MX,2022-09-22 19:17:46,30.4833,-115.95,76.89,64,17,11.5
235,Kahului,US,2022-09-22 19:17:46,20.8947,-156.47,86.02,61,20,4.61
236,Jardim,BR,2022-09-22 19:17:46,-21.4803,-56.1381,72.39,62,89,6.73
237,Kloulklubed,PW,2022-09-22 19:17:47,7.0419,134.2556,75.7,73,100,12.55
238,Nalut,LY,2022-09-22 19:17:47,30.3333,10.85,88.25,24,74,7.78
239,Bubaque,GW,2022-09-22 19:17:48,11.2833,-15.8333,79.88,77,100,8.05
240,Sheltozero,RU,2022-09-22 19:17:48,61.3667,35.3667,46.96,82,92,5.5
241,Camopi,GF,2022-09-22 19:17:48,3.1655,-52.3158,97.92,26,9,4.27
242,Port Elizabeth,ZA,2022-09-22 19:17:49,-33.918,25.5701,61.32,84,0,13.8
243,Esperance,AU,2022-09-22 19:17:49,-33.8667,121.9,46.92,72,0,9.24
244,Xucheng,CN,2022-09-22 19:17:49,20.35,110.1288,78.39,86,100,12.75
245,Shihezi,CN,2022-09-22 19:17:50,44.3,86.0333,70.68,15,100,2.1
246,Sangueya,GN,2022-09-22 19:17:50,10.7,-14.3667,74.71,96,100,3.78
247,Ushtobe,KZ,2022-09-22 19:17:50,45.2514,77.9838,64.76,30,6,3.51
248,Halifax,CA,2022-09-22 19:16:23,44.6453,-63.5724,64.69,80,100,18.99
249,San Juan,AR,2022-09-22 19:16:08,-31.5375,-68.5364,69.15,12,0,4.07
250,San Rafael,AR,2022-09-22 19:17:51,-34.6177,-68.3301,67.14,17,3,9.42
251,Cavalcante,BR,2022-09-22 19:17:52,-13.7975,-47.4583,84.06,42,99,2.62
252,Parker,US,2022-09-22 19:17:52,32.7668,-97.8003,97.36,32,4,3.0
253,Prince Albert,CA,2022-09-22 19:17:52,53.2001,-105.7677,60.75,41,20,16.11
254,Dumas,US,2022-09-22 19:17:53,35.8656,-101.9732,60.94,67,100,3.44
255,Ayorou,NE,2022-09-22 19:17:53,14.7308,0.9174,96.3,32,5,6.91
256,Pochutla,MX,2022-09-22 19:17:54,15.7432,-96.4661,89.42,69,54,6.85
257,Wilmington,US,2022-09-22 19:17:54,34.2257,-77.9447,93.0,52,0,10.36
258,Batemans Bay,AU,2022-09-22 19:17:54,-35.7167,150.1833,60.1,96,100,5.01
259,Harper,LR,2022-09-22 19:17:55,4.375,-7.7169,76.95,85,54,6.87
260,Ormara,PK,2022-09-22 19:17:55,25.2088,64.6357,79.74,82,16,13.49
261,Bairiki,KI,2022-09-22 19:17:55,1.3292,172.9752,80.6,83,40,8.05
262,Tiksi,RU,2022-09-22 19:17:56,71.6872,128.8694,29.64,90,100,11.59
263,Katsuura,JP,2022-09-22 19:17:56,35.1333,140.3,70.66,94,100,14.03
264,Ambon,ID,2022-09-22 19:17:56,-3.6954,128.1814,75.24,17,40,6.91
265,Plettenberg Bay,ZA,2022-09-22 19:17:57,-34.0527,23.3716,58.89,81,100,12.28
266,Kita,ML,2022-09-22 19:17:57,13.0349,-9.4895,75.74,89,31,4.29
267,Falmouth,GB,2022-09-22 19:17:58,50.1544,-5.0711,59.9,100,100,9.22
268,Isangel,VU,2022-09-22 19:17:58,-19.55,169.2667,68.11,88,81,2.3
269,Alliance,US,2022-09-22 19:17:58,40.9153,-81.1059,60.4,75,100,16.2
270,Canutama,BR,2022-09-22 19:17:59,-6.5339,-64.3831,94.03,37,96,0.69
271,Sao Filipe,CV,2022-09-22 19:17:59,14.8961,-24.4956,79.0,81,100,13.04
272,Sao Desiderio,BR,2022-09-22 19:18:00,-12.3633,-44.9733,93.45,29,55,4.72
273,Tunceli,TR,2022-09-22 19:19:01,39.1083,39.5471,65.5,55,85,2.08
274,Bharatpur,IN,2022-09-22 19:19:01,27.2167,77.4833,77.59,92,100,7.14
275,Catuday,PH,2022-09-22 19:19:01,16.2923,119.8062,79.32,73,19,2.55
276,Kununurra,AU,2022-09-22 19:15:02,-15.7667,128.7333,75.18,88,12,6.91
277,Itoman,JP,2022-09-22 19:19:02,26.1247,127.6694,79.57,96,20,4.61
278,Richards Bay,ZA,2022-09-22 19:19:02,-28.783,32.0377,68.68,93,0,6.87
279,Yichun,CN,2022-09-22 19:19:03,47.7,128.9,49.62,72,100,3.36
280,Lavrentiya,RU,2022-09-22 19:19:03,65.5833,-171.0,42.48,94,100,4.72
281,Kedrovyy,RU,2022-09-22 19:19:04,56.1667,91.8167,52.21,95,100,9.86
282,Padang,ID,2022-09-22 19:19:05,-0.9492,100.3543,76.62,78,100,2.89
283,Rio Grande,BR,2022-09-22 19:19:05,-32.035,-52.0986,51.91,88,100,28.7
284,Ancud,CL,2022-09-22 19:18:41,-41.8697,-73.8203,55.22,85,100,4.18
285,Kashmor,PK,2022-09-22 19:19:06,28.4333,69.5833,89.37,34,0,6.98
286,Lamar,US,2022-09-22 19:19:06,33.6668,-95.5836,99.9,26,0,5.75
287,Dukhovnitskoye,RU,2022-09-22 19:19:07,52.4828,48.2137,68.18,38,100,7.36
288,Tazovskiy,RU,2022-09-22 19:19:07,67.4667,78.7,35.01,97,100,13.18
289,Inuvik,CA,2022-09-22 19:19:08,68.3499,-133.7218,38.26,93,100,11.5
290,Luderitz,NA,2022-09-22 19:19:08,-26.6481,15.1594,56.48,76,0,11.41
291,Nara,JP,2022-09-22 19:18:58,34.6851,135.8049,73.9,85,100,10.0
292,Sumbawanga,TZ,2022-09-22 19:19:09,-7.9667,31.6167,66.2,48,100,1.88
293,Shar,KZ,2022-09-22 19:19:09,49.5886,81.0453,61.66,42,0,6.91
294,Clyde,US,2022-09-22 19:19:09,41.3042,-82.9752,62.91,55,99,20.2
295,Dukat,RU,2022-09-22 19:19:10,62.55,155.55,26.37,93,100,26.73
296,Hong Gai,VN,2022-09-22 19:19:10,20.956,107.0946,76.91,87,98,7.94
297,Sao Joao Da Barra,BR,2022-09-22 19:17:46,-21.6403,-41.0511,86.09,83,82,13.98
298,Garowe,SO,2022-09-22 19:19:11,8.4054,48.4845,76.28,72,100,25.28
299,Poum,NC,2022-09-22 19:19:11,-20.2333,164.0167,74.93,72,2,12.06
300,Port Hedland,AU,2022-09-22 19:19:12,-20.3167,118.5667,69.85,78,0,9.22
301,Lompoc,US,2022-09-22 19:19:12,34.6391,-120.4579,83.93,47,0,20.71
302,Eureka,US,2022-09-22 19:15:47,40.8021,-124.1637,71.2,77,0,5.01
303,Lukang,TW,2022-09-22 19:19:13,24.0567,120.4352,80.44,72,11,9.33
304,Sharjah,AE,2022-09-22 19:16:28,25.3573,55.4033,91.38,58,0,4.61
305,Koumac,NC,2022-09-22 19:19:13,-20.5667,164.2833,71.08,80,8,3.02
306,Chaman,PK,2022-09-22 19:19:14,30.9236,66.4512,74.91,11,0,3.91
307,Westport,US,2022-09-22 19:16:43,41.1415,-73.3579,64.33,89,75,9.22
308,Srednekolymsk,RU,2022-09-22 19:19:16,67.45,153.6833,34.18,93,100,13.22
309,Sampit,ID,2022-09-22 19:19:16,-2.5333,112.95,74.03,98,84,1.21
310,Basqal,AZ,2022-09-22 19:19:17,40.7552,48.391,66.9,46,99,3.02
311,Samarinda,ID,2022-09-22 19:19:17,-0.5,117.15,73.81,98,89,0.98
312,Bandundu,CD,2022-09-22 19:19:18,-3.3167,17.3667,76.68,71,22,1.39
313,Khandyga,RU,2022-09-22 19:19:18,62.6667,135.6,29.17,97,100,2.1
314,Gunjur,GM,2022-09-22 19:19:19,13.2019,-16.7339,80.67,83,40,2.3
315,Dongning,CN,2022-09-22 19:19:19,44.0622,131.1207,50.7,94,27,2.77
316,Saint-Augustin,CA,2022-09-22 19:19:20,51.226,-58.6502,61.77,89,100,15.9
317,Vestmannaeyjar,IS,2022-09-22 19:19:20,63.4427,-20.2734,50.23,79,80,13.8
318,Salym,RU,2022-09-22 19:19:20,60.0625,71.4789,40.5,67,0,6.64
319,Viedma,AR,2022-09-22 19:19:21,-40.8135,-62.9967,58.66,46,34,6.17
320,East London,ZA,2022-09-22 19:19:21,-33.0153,27.9116,69.66,63,3,4.9
321,Floriano,BR,2022-09-22 19:20:22,-6.7669,-43.0225,101.71,20,48,5.57
322,Maralal,KE,2022-09-22 19:20:22,1.0968,36.698,64.13,56,34,15.61
323,Darhan,MN,2022-09-22 19:20:23,49.4867,105.9228,41.99,46,20,7.4
324,Ardakan,IR,2022-09-22 19:20:24,32.31,54.0175,83.28,14,9,3.49
325,Fengcheng,CN,2022-09-22 19:20:24,40.4536,124.0717,56.01,98,100,2.71
326,Villa Guerrero,MX,2022-09-22 19:20:26,18.8667,-99.65,73.02,72,49,4.32
327,Biak,ID,2022-09-22 19:20:27,-0.9131,122.8766,74.88,84,100,2.21
328,Tautira,PF,2022-09-22 19:20:27,-17.7333,-149.15,77.2,76,27,20.65
329,Savannah Bight,HN,2022-09-22 19:20:28,16.45,-85.85,82.63,72,47,2.04
330,Alofi,NU,2022-09-22 19:20:29,-19.0595,-169.9187,76.89,83,9,10.36
331,Soledade,BR,2022-09-22 19:20:29,-28.8183,-52.5103,47.62,83,94,15.28
332,Nuuk,GL,2022-09-22 19:20:29,64.1835,-51.7216,48.81,87,100,34.52
333,Zlate Moravce,SK,2022-09-22 19:20:30,48.3855,18.4006,53.13,74,52,6.15
334,Casma,CL,2022-09-22 19:20:30,-41.0082,-73.1244,51.08,99,100,4.12
335,Montbrison,FR,2022-09-22 19:20:31,45.6667,4.0833,57.67,52,2,2.01
336,Pueblo Nuevo,MX,2022-09-22 19:20:31,23.3833,-105.3833,74.14,47,15,4.79
337,Tezu,IN,2022-09-22 19:19:14,27.9167,96.1667,74.01,96,97,3.53
338,Bardiyah,LY,2022-09-22 19:20:32,31.7561,25.0865,76.01,62,0,9.55
339,Pipri,IN,2022-09-22 19:20:32,19.8,75.5333,70.56,87,99,10.45
340,Puerto Maldonado,PE,2022-09-22 19:20:32,-12.6,-69.1833,81.0,69,75,3.44
341,Geraldton,AU,2022-09-22 19:20:33,-28.7667,114.6,46.81,87,0,4.61
342,General Pico,AR,2022-09-22 19:20:33,-35.6566,-63.7568,67.42,21,0,14.12
343,Port Blair,IN,2022-09-22 19:20:34,11.6667,92.75,77.04,88,75,2.3
344,Palmer,US,2022-09-22 19:20:20,42.1584,-72.3287,59.77,86,75,0.0
345,Novaya Ladoga,RU,2022-09-22 19:20:34,60.1025,32.3019,47.37,87,100,6.44
346,Kropotkin,RU,2022-09-22 19:20:35,45.4375,40.5756,60.71,93,99,5.28
347,Sitio Novo Do Tocantins,BR,2022-09-22 19:20:35,-5.5183,-47.4611,94.93,43,40,6.91
348,Luganville,VU,2022-09-22 19:20:36,-15.5333,167.1667,77.81,83,69,4.74
349,Salou,ES,2022-09-22 19:20:36,41.0766,1.1416,72.28,72,20,2.3
350,Burns Lake,CA,2022-09-22 19:20:36,54.2331,-125.7533,67.42,31,7,9.98
351,Aklavik,CA,2022-09-22 19:20:37,68.2191,-135.0107,37.02,97,100,11.16
352,Liverpool,GB,2022-09-22 19:20:06,53.4106,-2.9779,59.29,94,75,1.99
353,Carutapera,BR,2022-09-22 19:20:37,-1.195,-46.02,85.14,58,10,9.86
354,Sangre Grande,TT,2022-09-22 19:20:38,10.5835,-61.1177,79.93,91,100,7.61
355,Zaraza,VE,2022-09-22 19:20:38,9.3503,-65.3245,74.16,92,99,0.43
356,Buraydah,SA,2022-09-22 19:20:38,26.326,43.975,90.05,15,23,10.47
357,High Level,CA,2022-09-22 19:20:39,58.5169,-117.136,64.51,55,20,10.36
358,Owase,JP,2022-09-22 19:20:42,34.0667,136.2,74.73,98,100,15.61
359,Harlingen,US,2022-09-22 19:19:25,26.1906,-97.6961,93.11,72,40,14.97
360,Jalu,LY,2022-09-22 19:20:42,29.0331,21.5482,85.03,35,0,8.61
361,Saint-Paul,RE,2022-09-22 19:20:43,-21.0096,55.2707,69.89,79,4,1.5
362,Kurchum,KZ,2022-09-22 19:20:43,48.5722,83.6542,63.72,30,100,2.75
363,Ewa Beach,US,2022-09-22 19:20:45,21.3156,-158.0072,83.43,64,0,6.91
364,Nador,MA,2022-09-22 19:20:45,35.174,-2.9287,75.27,83,0,3.44
365,Igrim,RU,2022-09-22 19:20:46,63.1906,64.4162,42.33,65,42,8.88
366,Sayyan,YE,2022-09-22 19:20:46,15.1718,44.3244,67.35,27,8,5.91
367,Batagay,RU,2022-09-22 19:20:47,67.6333,134.6333,26.98,97,100,2.35
368,Brae,GB,2022-09-22 19:21:47,60.3964,-1.353,53.28,89,0,14.38
369,Broken Hill,AU,2022-09-22 19:19:18,-31.95,141.4333,53.35,87,0,7.4
370,Sangar,RU,2022-09-22 19:21:48,63.9242,127.4739,29.91,95,100,3.38
371,Egvekinot,RU,2022-09-22 19:21:48,66.3167,-179.1667,32.54,99,100,6.08
372,Asbe Teferi,ET,2022-09-22 19:21:49,9.0833,40.8667,60.62,91,100,5.7
373,Baijiantan,CN,2022-09-22 19:21:49,45.6333,85.1833,73.63,20,100,2.64
374,Fort Wellington,GY,2022-09-22 19:18:17,6.4,-57.6,85.69,62,9,9.53
375,Sovetskiy,RU,2022-09-22 19:21:50,61.3614,63.5842,40.77,65,97,5.03
376,Caravelas,BR,2022-09-22 19:21:50,-17.7125,-39.2481,78.13,76,12,14.12
377,Moyo,UG,2022-09-22 19:21:51,3.6609,31.7247,67.44,95,100,2.73
378,Churapcha,RU,2022-09-22 19:21:51,62.0025,132.4325,26.24,83,84,3.22
379,Balsas,BR,2022-09-22 19:21:52,-7.5325,-46.0356,102.99,18,26,3.74
380,Sistranda,NO,2022-09-22 19:21:52,63.7256,8.834,53.56,87,100,4.36
381,Taupo,NZ,2022-09-22 19:21:52,-38.6833,176.0833,52.3,92,100,7.47
382,Wajima,JP,2022-09-22 19:21:53,37.4,136.9,71.73,83,100,6.46
383,Moree,AU,2022-09-22 19:21:53,-29.4667,149.85,50.02,93,100,8.05
384,Kondinskoye,RU,2022-09-22 19:21:54,59.6481,67.41,43.88,56,100,5.82
385,Sabang,ID,2022-09-22 19:21:54,5.8933,95.3214,82.22,74,100,16.55
386,Bilma,NE,2022-09-22 19:21:54,18.6853,12.9164,94.68,10,43,8.43
387,Cap-Aux-Meules,CA,2022-09-22 19:17:09,47.3821,-61.8597,64.45,94,75,13.8
388,Aksarka,RU,2022-09-22 19:21:55,66.5606,67.7975,36.97,68,70,22.12
389,Gobabis,NA,2022-09-22 19:21:56,-22.45,18.9667,63.91,13,0,4.61
390,Ketchikan,US,2022-09-22 19:21:56,55.3422,-131.6461,54.07,82,75,4.61
391,Taltal,CL,2022-09-22 19:21:56,-25.4,-70.4833,62.19,59,22,4.83
392,Limpapa,PH,2022-09-22 19:21:57,7.1197,121.9106,77.07,84,100,0.85
393,Altamont,US,2022-09-22 19:21:57,42.2068,-121.7372,62.4,63,75,6.91
394,Pevek,RU,2022-09-22 19:21:57,69.7008,170.3133,34.95,86,12,17.09
395,Tra Vinh,VN,2022-09-22 19:21:58,9.9347,106.3453,75.52,93,100,3.89
396,Wyndham,US,2022-09-22 19:20:00,37.6985,-77.6125,89.46,77,100,9.22
397,Mocuba,MZ,2022-09-22 19:21:58,-16.8392,36.9856,75.79,59,0,8.88
398,Maragogi,BR,2022-09-22 19:21:59,-9.0122,-35.2225,78.66,73,34,10.11
399,Port-Cartier,CA,2022-09-22 19:21:59,50.0334,-66.8654,52.02,99,100,1.12
400,College,US,2022-09-22 19:22:00,64.8569,-147.8028,41.07,95,100,4.61
401,Spornoye,RU,2022-09-22 19:22:00,50.8448,37.2913,51.03,65,63,4.21
402,Matara,LK,2022-09-22 19:22:01,5.9485,80.5353,77.79,87,89,8.66
403,Narodychi,UA,2022-09-22 19:22:01,51.2029,29.0823,46.27,97,100,5.01
404,Sile,TR,2022-09-22 19:22:02,41.1754,29.6133,56.07,72,13,10.09
405,Bayir,TR,2022-09-22 19:22:02,37.2687,28.2167,63.12,54,4,5.79
406,Dakar,SN,2022-09-22 19:22:02,14.6937,-17.4441,80.73,89,75,18.41
407,Saint-Joseph,RE,2022-09-22 19:22:03,-21.3667,55.6167,69.6,84,19,12.73
408,Shirvan,AZ,2022-09-22 19:22:03,39.9509,48.8994,79.11,60,84,4.5
409,Awjilah,LY,2022-09-22 19:22:03,29.1081,21.2869,84.87,36,0,8.63
410,Tagbac,PH,2022-09-22 19:22:04,7.089,125.1567,71.78,93,100,0.29
411,Marandahalli,IN,2022-09-22 19:22:04,12.4,78.0,72.82,74,100,7.23
412,Anuradhapura,LK,2022-09-22 19:22:05,8.3565,80.4173,77.5,82,100,9.46
413,Kisangani,CD,2022-09-22 19:22:05,0.5167,25.2,72.25,93,73,3.42
414,Binzhou,CN,2022-09-22 19:22:06,37.3667,118.0167,55.02,20,0,17.65
415,Hofn,IS,2022-09-22 19:22:06,64.2539,-15.2082,47.01,91,99,10.47
416,Yermekeyevo,RU,2022-09-22 19:22:06,54.0761,53.6712,65.52,25,100,7.36
417,Catia La Mar,VE,2022-09-22 19:23:07,10.6038,-67.0303,76.82,87,100,8.41
418,Severodvinsk,RU,2022-09-22 19:23:08,64.5635,39.8302,42.91,78,90,5.32
419,Dwarka,IN,2022-09-22 19:23:08,22.2394,68.9678,80.56,73,100,10.2
420,Zhigansk,RU,2022-09-22 19:23:10,66.7697,123.3711,27.5,90,100,0.11
421,San Carlos De Bariloche,AR,2022-09-22 19:20:30,-41.1456,-71.3082,49.75,71,75,18.41
422,Ozark,US,2022-09-22 19:23:11,37.0209,-93.206,63.12,92,100,7.07
423,Trincomalee,LK,2022-09-22 19:23:11,8.5711,81.2335,80.56,74,98,17.45
424,Nabire,ID,2022-09-22 19:23:12,-3.3667,135.4833,74.55,91,91,3.36
425,Narok,KE,2022-09-22 19:23:12,-1.0783,35.8601,61.43,69,100,8.16
426,Srivardhan,IN,2022-09-22 19:23:13,18.0333,73.0167,77.23,82,99,5.23
427,Alice Town,BS,2022-09-22 19:23:13,25.7167,-79.3,83.64,67,4,8.08
428,Te Anau,NZ,2022-09-22 19:23:14,-45.4167,167.7167,40.66,94,53,0.54
429,Gat,IL,2022-09-22 19:23:07,31.61,34.7642,76.82,63,0,2.73
430,Gurupa,BR,2022-09-22 19:23:14,-1.405,-51.64,98.22,26,17,4.38
431,Tagusao,PH,2022-09-22 19:23:15,9.1924,117.8141,79.68,82,85,4.97
432,Dutse,NG,2022-09-22 19:23:15,11.7594,9.3392,82.47,59,4,3.67
433,Nhulunbuy,AU,2022-09-22 19:23:16,-12.2333,136.7667,74.01,88,100,0.0
434,Usinsk,RU,2022-09-22 19:23:16,65.9939,57.5281,41.31,92,100,13.33
435,Bozeman,US,2022-09-22 19:20:11,45.6796,-111.0386,63.82,62,75,11.5
436,Itarema,BR,2022-09-22 19:23:17,-2.9248,-39.9167,83.62,61,18,18.34
437,Troitskoye,RU,2022-09-22 19:23:17,52.9821,84.6757,57.45,62,67,6.02
438,Riyadh,SA,2022-09-22 19:22:46,24.6877,46.7219,93.34,15,62,10.54
439,Kaili,ID,2022-09-22 19:23:18,-3.4626,120.2147,67.55,84,100,1.95
440,Iralaya,HN,2022-09-22 19:23:19,15.0,-83.2333,85.93,65,38,6.91
441,Sukhobezvodnoye,RU,2022-09-22 19:23:19,57.0491,44.8891,51.22,97,100,4.63
442,Guilin,CN,2022-09-22 19:23:20,25.2819,110.2864,75.31,60,91,5.97
443,Hovd,MN,2022-09-22 19:23:20,48.0056,91.6419,51.35,36,0,0.83
444,Lodwar,KE,2022-09-22 19:23:20,3.1191,35.5973,87.31,33,68,7.38
445,Yurgamysh,RU,2022-09-22 19:23:21,55.3714,64.4656,56.16,70,84,6.82
446,Santa Catarina De Tepehuanes,MX,2022-09-22 19:23:22,25.35,-105.7333,76.91,44,3,10.8
447,Kandrian,PG,2022-09-22 19:23:23,-6.2167,149.55,74.86,89,69,5.99
448,Sobolevo,RU,2022-09-22 19:23:23,54.4299,31.8996,47.46,97,95,8.21
449,Berdigestyakh,RU,2022-09-22 19:23:24,62.0989,126.6992,24.01,97,26,3.0
450,Afyonkarahisar,TR,2022-09-22 19:23:24,38.75,30.6667,49.53,64,93,8.3
451,Krasnyy Chikoy,RU,2022-09-22 19:23:25,50.3643,108.7512,37.8,70,94,4.0
452,West Fargo,US,2022-09-22 19:21:54,46.875,-96.9004,60.03,44,0,5.75
453,Zaozerne,UA,2022-09-22 19:23:25,45.1582,33.2787,56.21,62,100,9.69
454,Akdagmadeni,TR,2022-09-22 19:23:26,39.6603,35.8836,55.8,71,100,3.53
455,Yangjiang,CN,2022-09-22 19:23:27,21.85,111.9667,75.16,89,18,4.34
456,Ballina,AU,2022-09-22 19:19:35,-28.8667,153.5667,63.79,99,100,11.92
457,Kruisfontein,ZA,2022-09-22 19:23:27,-34.0033,24.7314,58.89,77,100,7.47
458,Naron,ES,2022-09-22 19:23:28,43.5167,-8.1528,67.05,77,99,7.58
459,Puerto Colombia,CO,2022-09-22 19:23:29,10.9878,-74.9547,84.29,71,39,4.81
460,Merauke,ID,2022-09-22 19:23:29,-8.4667,140.3333,76.12,91,91,7.25
461,Mayskiy,RU,2022-09-22 19:23:29,47.6931,40.1025,62.01,63,100,4.7
462,Neiafu,TO,2022-09-22 19:23:30,-18.65,-173.9833,77.68,88,40,12.66
463,Sinnamary,GF,2022-09-22 19:23:30,5.3833,-52.95,84.74,66,1,12.15
464,Tubuala,PA,2022-09-22 19:23:31,9.5167,-79.0333,84.09,71,89,6.58
465,San Isidro,PE,2022-09-22 19:24:32,-12.1167,-77.05,62.19,72,75,14.97
466,Aksu,CN,2022-09-22 19:24:32,41.1231,80.2644,71.13,30,67,5.37
467,Coquimbo,CL,2022-09-22 19:24:33,-29.9533,-71.3436,64.13,51,0,16.11
468,Wanning,CN,2022-09-22 19:24:33,18.8003,110.3967,76.86,89,100,2.17
469,Borger,NL,2022-09-22 19:20:57,52.9233,6.7931,54.93,80,100,6.2
470,Zwickau,DE,2022-09-22 19:24:34,50.7167,12.4833,48.79,79,6,4.61
471,Abu Samrah,SY,2022-09-22 19:24:34,35.3029,37.1841,70.86,67,0,14.09
472,Maceio,BR,2022-09-22 19:24:34,-9.6658,-35.7353,81.84,74,75,14.97
473,Gamba,GA,2022-09-22 19:24:35,-2.65,10.0,76.66,85,97,6.33
474,Guadalupe Y Calvo,MX,2022-09-22 19:24:35,26.1,-106.9667,75.15,33,9,4.32
475,Bilibino,RU,2022-09-22 19:24:36,68.0546,166.4372,32.54,88,100,7.67
476,Ribeira Grande,PT,2022-09-22 19:24:36,38.5167,-28.7,77.4,83,20,9.22
477,Aden,YE,2022-09-22 19:24:37,12.7794,45.0367,87.91,71,68,10.4
478,Haines Junction,CA,2022-09-22 19:24:37,60.7522,-137.5108,49.95,37,76,4.61
479,Udachnyy,RU,2022-09-22 19:19:54,66.4167,112.4,18.19,88,100,5.37
480,Totma,RU,2022-09-22 19:24:38,59.9747,42.7642,46.65,84,100,5.61
481,Jizan,SA,2022-09-22 19:24:38,17.3333,42.6667,90.54,56,96,4.7
482,Los Llanos De Aridane,ES,2022-09-22 19:24:39,28.6585,-17.9182,74.95,70,40,13.0
483,Kidal,ML,2022-09-22 19:24:39,18.4411,1.4078,98.11,14,79,8.21
484,Olga,RU,2022-09-22 19:24:40,43.7444,135.2892,49.48,85,100,4.83
485,Umm Bab,QA,2022-09-22 19:24:40,25.2142,50.8072,89.29,58,0,11.23
486,Naze,JP,2022-09-22 19:24:41,28.3667,129.4833,77.92,86,19,7.38
487,Yumen,CN,2022-09-22 19:24:41,40.2833,97.2,55.74,22,100,14.14
488,Huejuquilla El Alto,MX,2022-09-22 19:24:42,22.6,-103.8667,77.9,32,0,6.44
489,Marsa Matruh,EG,2022-09-22 19:24:42,31.3525,27.2453,76.35,70,11,14.25
490,Deputatskiy,RU,2022-09-22 19:24:43,69.3,139.9,18.5,95,99,6.17
491,Sisimiut,GL,2022-09-22 19:24:43,66.9395,-53.6735,38.5,98,100,1.12
492,Gravdal,NO,2022-09-22 19:24:43,68.1214,13.5031,51.69,87,75,4.61
493,Fort Nelson,CA,2022-09-22 19:23:52,58.8053,-122.7002,67.59,49,40,2.3
494,Sibolga,ID,2022-09-22 19:24:44,1.7427,98.7792,75.65,81,100,3.27
495,Cervo,ES,2022-09-22 19:24:44,43.6702,-7.4101,63.97,83,100,5.75
496,Belmonte,BR,2022-09-22 19:24:46,-15.8631,-38.8828,77.99,78,1,14.0
497,Revda,RU,2022-09-22 19:24:46,56.801,59.9303,53.2,78,100,3.65
498,Tayginka,RU,2022-09-22 19:24:46,55.6244,60.5076,54.36,72,29,1.5
499,Qaqortoq,GL,2022-09-22 19:24:47,60.7167,-46.0333,44.91,96,100,8.63
500,Port Moresby,PG,2022-09-22 19:24:47,-9.4431,147.1797,74.62,100,40,3.44
501,Oranjemund,NA,2022-09-22 19:24:47,-28.55,16.4333,55.94,84,4,2.84
502,Mahenge,TZ,2022-09-22 19:24:48,-8.6833,36.7167,66.94,48,50,2.66
503,Atocha,BO,2022-09-22 19:24:48,-20.9333,-66.2333,59.36,4,64,22.46
504,Midlothian,US,2022-09-22 19:21:09,32.4824,-96.9945,98.22,32,100,3.44
505,Purranque,CL,2022-09-22 19:24:49,-40.9167,-73.1667,51.13,99,100,4.0
506,Kingston,JM,2022-09-22 19:20:53,17.997,-76.7936,90.25,67,20,10.36
507,Ahuimanu,US,2022-09-22 19:24:49,21.4447,-157.8378,83.19,66,75,9.22
508,Hammerfest,NO,2022-09-22 19:22:25,70.6634,23.6821,57.65,67,0,6.91
509,San-Pedro,CI,2022-09-22 19:24:49,4.7485,-6.6363,76.06,90,78,5.48
510,Henties Bay,NA,2022-09-22 19:24:50,-22.116,14.2845,55.76,86,0,10.16
511,Mecca,SA,2022-09-22 19:24:50,21.4267,39.8261,84.06,34,0,7.05
512,Flin Flon,CA,2022-09-22 19:25:50,54.7682,-101.865,60.64,44,20,13.8
513,Avera,US,2022-09-22 19:25:51,33.194,-82.5271,95.56,27,0,11.83
514,Kuopio,FI,2022-09-22 19:25:51,62.8924,27.677,40.95,93,0,2.3
515,Haapiti,PF,2022-09-22 19:25:52,-17.5667,-149.8667,80.33,74,7,18.97
516,Lokosovo,RU,2022-09-22 19:25:52,61.1333,74.8167,41.47,59,76,13.33
517,Jackson,US,2022-09-22 19:23:03,42.4165,-122.8345,72.91,65,40,5.75
518,Pitimbu,BR,2022-09-22 19:25:53,-7.4706,-34.8086,84.79,71,31,10.56
519,Bonavista,CA,2022-09-22 19:25:53,48.6499,-53.1147,57.06,96,100,22.26
520,Pingliang,CN,2022-09-22 19:25:53,35.5392,106.6861,55.42,41,100,1.68
521,Sturgeon Falls,CA,2022-09-22 19:25:54,46.3646,-79.9326,51.76,73,100,16.4
522,Mildura,AU,2022-09-22 19:25:54,-34.2,142.15,54.07,90,89,9.75
523,Santa Fe,AR,2022-09-22 19:25:55,-31.6333,-60.7,72.01,24,4,8.99
524,Kamalia,PK,2022-09-22 19:25:55,30.7333,72.65,81.3,64,0,6.87
525,Neustrelitz,DE,2022-09-22 19:25:56,53.3667,13.0833,51.85,60,52,4.45
526,Mezen,RU,2022-09-22 19:25:56,65.8522,44.24,42.85,85,96,4.7
527,Dharchula,IN,2022-09-22 19:25:56,29.85,80.5333,69.48,85,100,2.35
528,Vitim,RU,2022-09-22 19:25:57,59.4511,112.5578,37.02,98,100,7.43
529,Simbakoro,SL,2022-09-22 19:25:57,8.6,-11.0167,71.4,98,100,2.48
530,Inyonga,TZ,2022-09-22 19:25:57,-6.7167,32.0667,76.1,34,31,4.99
531,Chapais,CA,2022-09-22 19:25:58,49.7834,-74.8492,42.58,97,100,13.8
532,Youghal,IE,2022-09-22 19:25:58,51.95,-7.8506,58.21,88,0,12.5
533,Mukhen,RU,2022-09-22 19:25:58,48.1,136.1,48.54,77,8,4.45
534,Malanje,AO,2022-09-22 19:25:59,-9.5402,16.341,74.35,60,95,6.49
535,Flinders,AU,2022-09-22 19:25:59,-34.5833,150.8552,60.19,93,100,4.0
536,San Antonio,US,2022-09-22 19:25:55,29.4241,-98.4936,99.19,32,20,10.36
537,Olafsvik,IS,2022-09-22 19:26:00,64.8945,-23.7142,44.37,76,98,16.89
538,Las Vegas,US,2022-09-22 19:24:41,36.175,-115.1372,90.77,18,0,8.05
539,Boulder City,US,2022-09-22 19:26:00,35.9786,-114.8325,89.92,32,0,4.61
540,Walvis Bay,NA,2022-09-22 19:26:01,-22.9575,14.5053,56.08,87,0,6.91
541,Togur,RU,2022-09-22 19:26:01,58.3631,82.8265,41.59,82,6,9.82
542,Pabna,BD,2022-09-22 19:26:02,24.0,89.25,78.66,92,88,6.08
543,Pemba,MZ,2022-09-22 19:26:02,-12.974,40.5178,77.7,78,40,9.22
544,Savinskiy,RU,2022-09-22 19:26:03,62.9342,40.1361,41.9,79,63,0.0
545,Wuda,CN,2022-09-22 19:26:04,39.4994,106.7117,51.3,26,21,9.75
546,Meulaboh,ID,2022-09-22 19:23:37,4.1363,96.1285,76.55,89,93,5.57
547,Roma,US,2022-09-22 19:21:31,43.2128,-75.4557,60.73,84,100,18.01
548,Turukhansk,RU,2022-09-22 19:26:05,65.8167,87.9833,32.59,94,96,8.32
549,Seoul,KR,2022-09-22 19:26:05,37.5683,126.9778,67.44,91,0,5.75
550,Whitehorse,CA,2022-09-22 19:26:06,60.7161,-135.0538,50.77,50,75,11.5
551,Teruel,ES,2022-09-22 19:24:59,40.6667,-0.6667,57.85,62,3,4.32
552,Oriximina,BR,2022-09-22 19:26:06,-1.7656,-55.8661,98.28,30,3,7.74
553,Bowen,AU,2022-09-22 19:26:07,-20.0167,148.2333,70.23,92,2,4.07
554,Mandalgovi,MN,2022-09-22 19:26:07,45.7625,106.2708,40.64,28,0,8.61
555,Hami,CN,2022-09-22 19:26:08,42.8,93.45,69.98,12,20,9.08
556,Hoima,UG,2022-09-22 19:26:08,1.4356,31.3436,64.58,87,74,1.52
557,Cockburn Town,TC,2022-09-22 19:26:09,21.4612,-71.1419,82.33,79,80,8.77
558,Hobyo,SO,2022-09-22 19:27:09,5.3505,48.5268,76.33,89,42,20.2
559,Villa Carlos Paz,AR,2022-09-22 19:27:10,-31.4241,-64.4978,70.39,19,0,5.99
560,Moctezuma,MX,2022-09-22 19:27:10,29.8,-109.6667,89.31,46,5,0.58
561,Ambilobe,MG,2022-09-22 19:22:29,-13.2,49.05,73.38,65,6,8.48
562,Zabol,AF,2022-09-22 19:27:11,32.25,67.25,67.71,15,0,6.24
563,Ikalamavony,MG,2022-09-22 19:27:11,-21.15,46.5833,62.49,76,25,8.77
564,Pandan,PH,2022-09-22 19:27:12,14.0453,124.1694,79.27,85,70,6.31
565,Quang Ngai,VN,2022-09-22 19:27:12,15.1167,108.8,75.78,93,100,2.19
566,Severnyy,RU,2022-09-22 19:27:13,50.677,36.5532,51.84,76,0,4.47
567,Altayskoye,RU,2022-09-22 19:27:13,51.9533,85.3325,56.98,51,0,6.8
568,Thunder Bay,CA,2022-09-22 19:22:50,48.4001,-89.3168,53.51,47,20,8.05
569,La Carlota,PH,2022-09-22 19:27:14,10.4233,122.9208,77.85,88,100,4.47
570,Manzanillo,CU,2022-09-22 19:27:14,20.3433,-77.1167,87.46,60,87,8.52
571,Luanda,AO,2022-09-22 19:27:15,-8.8368,13.2343,73.4,83,40,9.22
572,El Alto,PE,2022-09-22 19:27:17,-4.2714,-81.2147,71.26,71,100,14.05
573,Longyearbyen,SJ,2022-09-22 19:27:17,78.2186,15.6401,35.44,69,40,26.46
